[
   {
      "name": "Burgenland",
      "isoCode": "1",
      "countryCode": "AT",
      "latitude": "47.15371650",
      "longitude": "16.26887970"
   },
   {
      "name": "Carinthia",
      "isoCode": "2",
      "countryCode": "AT",
      "latitude": "46.72220300",
      "longitude": "14.18058820"
   },
   {
      "name": "Lower Austria",
      "isoCode": "3",
      "countryCode": "AT",
      "latitude": "48.10807700",
      "longitude": "15.80495580"
   },
   {
      "name": "Upper Austria",
      "isoCode": "4",
      "countryCode": "AT",
      "latitude": "48.02585400",
      "longitude": "13.97236650"
   },
   {
      "name": "Salzburg",
      "isoCode": "5",
      "countryCode": "AT",
      "latitude": "47.80949000",
      "longitude": "13.05501000"
   },
   {
      "name": "Styria",
      "isoCode": "6",
      "countryCode": "AT",
      "latitude": "47.35934420",
      "longitude": "14.46998270"
   },
   {
      "name": "Tyrol",
      "isoCode": "7",
      "countryCode": "AT",
      "latitude": "47.25374140",
      "longitude": "11.60148700"
   },
   {
      "name": "Vorarlberg",
      "isoCode": "8",
      "countryCode": "AT",
      "latitude": "47.24974270",
      "longitude": "9.97973730"
   },
   {
      "name": "Vienna",
      "isoCode": "9",
      "countryCode": "AT",
      "latitude": "48.20817430",
      "longitude": "16.37381890"
   },
   {
      "name": "Australian Capital Territory",
      "isoCode": "ACT",
      "countryCode": "AU",
      "latitude": "-35.47346790",
      "longitude": "149.01236790"
   },
   {
      "name": "New South Wales",
      "isoCode": "NSW",
      "countryCode": "AU",
      "latitude": "-31.25321830",
      "longitude": "146.92109900"
   },
   {
      "name": "Northern Territory",
      "isoCode": "NT",
      "countryCode": "AU",
      "latitude": "-19.49141080",
      "longitude": "132.55096030"
   },
   {
      "name": "Queensland",
      "isoCode": "QLD",
      "countryCode": "AU",
      "latitude": "-20.91757380",
      "longitude": "142.70279560"
   },
   {
      "name": "South Australia",
      "isoCode": "SA",
      "countryCode": "AU",
      "latitude": "-30.00023150",
      "longitude": "136.20915470"
   },
   {
      "name": "Tasmania",
      "isoCode": "TAS",
      "countryCode": "AU",
      "latitude": "-41.45451960",
      "longitude": "145.97066470"
   },
   {
      "name": "Victoria",
      "isoCode": "VIC",
      "countryCode": "AU",
      "latitude": "-36.48564230",
      "longitude": "140.97794250"
   },
   {
      "name": "Western Australia",
      "isoCode": "WA",
      "countryCode": "AU",
      "latitude": "-27.67281680",
      "longitude": "121.62830980"
   },
   {
      "name": "Alberta",
      "isoCode": "AB",
      "countryCode": "CA",
      "latitude": "53.93327060",
      "longitude": "-116.57650350"
   },
   {
      "name": "British Columbia",
      "isoCode": "BC",
      "countryCode": "CA",
      "latitude": "53.72666830",
      "longitude": "-127.64762050"
   },
   {
      "name": "Manitoba",
      "isoCode": "MB",
      "countryCode": "CA",
      "latitude": "53.76086080",
      "longitude": "-98.81387620"
   },
   {
      "name": "New Brunswick",
      "isoCode": "NB",
      "countryCode": "CA",
      "latitude": "46.56531630",
      "longitude": "-66.46191640"
   },
   {
      "name": "Newfoundland and Labrador",
      "isoCode": "NL",
      "countryCode": "CA",
      "latitude": "53.13550910",
      "longitude": "-57.66043640"
   },
   {
      "name": "Nova Scotia",
      "isoCode": "NS",
      "countryCode": "CA",
      "latitude": "44.68198660",
      "longitude": "-63.74431100"
   },
   {
      "name": "Northwest Territories",
      "isoCode": "NT",
      "countryCode": "CA",
      "latitude": "64.82554410",
      "longitude": "-124.84573340"
   },
   {
      "name": "Nunavut",
      "isoCode": "NU",
      "countryCode": "CA",
      "latitude": "70.29977110",
      "longitude": "-83.10757700"
   },
   {
      "name": "Ontario",
      "isoCode": "ON",
      "countryCode": "CA",
      "latitude": "51.25377500",
      "longitude": "-85.32321400"
   },
   {
      "name": "Prince Edward Island",
      "isoCode": "PE",
      "countryCode": "CA",
      "latitude": "46.51071200",
      "longitude": "-63.41681360"
   },
   {
      "name": "Quebec",
      "isoCode": "QC",
      "countryCode": "CA",
      "latitude": "52.93991590",
      "longitude": "-73.54913610"
   },
   {
      "name": "Saskatchewan",
      "isoCode": "SK",
      "countryCode": "CA",
      "latitude": "52.93991590",
      "longitude": "-106.45086390"
   },
   {
      "name": "Yukon",
      "isoCode": "YT",
      "countryCode": "CA",
      "latitude": "35.50672150",
      "longitude": "-97.76254410"
   },
   {
      "name": "Aargau",
      "isoCode": "AG",
      "countryCode": "CH",
      "latitude": "47.38766640",
      "longitude": "8.25542950"
   },
   {
      "name": "Appenzell Innerrhoden",
      "isoCode": "AI",
      "countryCode": "CH",
      "latitude": "47.31619250",
      "longitude": "9.43165730"
   },
   {
      "name": "Appenzell Ausserrhoden",
      "isoCode": "AR",
      "countryCode": "CH",
      "latitude": "47.36648100",
      "longitude": "9.30009160"
   },
   {
      "name": "Bern",
      "isoCode": "BE",
      "countryCode": "CH",
      "latitude": "46.79886210",
      "longitude": "7.70807010"
   },
   {
      "name": "Basel-Land",
      "isoCode": "BL",
      "countryCode": "CH",
      "latitude": "47.44181220",
      "longitude": "7.76440020"
   },
   {
      "name": "Basel-Stadt",
      "isoCode": "BS",
      "countryCode": "CH",
      "latitude": "47.56666700",
      "longitude": "7.60000000"
   },
   {
      "name": "Fribourg",
      "isoCode": "FR",
      "countryCode": "CH",
      "latitude": "46.68167480",
      "longitude": "7.11726350"
   },
   {
      "name": "Geneva",
      "isoCode": "GE",
      "countryCode": "CH",
      "latitude": "46.21800730",
      "longitude": "6.12169250"
   },
   {
      "name": "Glarus",
      "isoCode": "GL",
      "countryCode": "CH",
      "latitude": "47.04112320",
      "longitude": "9.06790000"
   },
   {
      "name": "Graubünden",
      "isoCode": "GR",
      "countryCode": "CH",
      "latitude": "46.65698710",
      "longitude": "9.57802570"
   },
   {
      "name": "Jura",
      "isoCode": "JU",
      "countryCode": "CH",
      "latitude": "47.34444740",
      "longitude": "7.14306080"
   },
   {
      "name": "Lucerne",
      "isoCode": "LU",
      "countryCode": "CH",
      "latitude": "47.07956710",
      "longitude": "8.16624450"
   },
   {
      "name": "Neuchâtel",
      "isoCode": "NE",
      "countryCode": "CH",
      "latitude": "46.98998740",
      "longitude": "6.92927320"
   },
   {
      "name": "Nidwalden",
      "isoCode": "NW",
      "countryCode": "CH",
      "latitude": "46.92670160",
      "longitude": "8.38499820"
   },
   {
      "name": "Obwalden",
      "isoCode": "OW",
      "countryCode": "CH",
      "latitude": "46.87785800",
      "longitude": "8.25124900"
   },
   {
      "name": "St. Gallen",
      "isoCode": "SG",
      "countryCode": "CH",
      "latitude": "47.14562540",
      "longitude": "9.35043320"
   },
   {
      "name": "Schaffhausen",
      "isoCode": "SH",
      "countryCode": "CH",
      "latitude": "47.70093640",
      "longitude": "8.56800400"
   },
   {
      "name": "Solothurn",
      "isoCode": "SO",
      "countryCode": "CH",
      "latitude": "47.33207170",
      "longitude": "7.63883850"
   },
   {
      "name": "Schwyz",
      "isoCode": "SZ",
      "countryCode": "CH",
      "latitude": "47.02071380",
      "longitude": "8.65298840"
   },
   {
      "name": "Thurgau",
      "isoCode": "TG",
      "countryCode": "CH",
      "latitude": "47.60378560",
      "longitude": "9.05573710"
   },
   {
      "name": "Ticino",
      "isoCode": "TI",
      "countryCode": "CH",
      "latitude": "46.33173400",
      "longitude": "8.80045290"
   },
   {
      "name": "Uri",
      "isoCode": "UR",
      "countryCode": "CH",
      "latitude": "41.48606470",
      "longitude": "-71.53085370"
   },
   {
      "name": "Vaud",
      "isoCode": "VD",
      "countryCode": "CH",
      "latitude": "46.56131350",
      "longitude": "6.53676500"
   },
   {
      "name": "Valais",
      "isoCode": "VS",
      "countryCode": "CH",
      "latitude": "46.19046140",
      "longitude": "7.54492260"
   },
   {
      "name": "Zug",
      "isoCode": "ZG",
      "countryCode": "CH",
      "latitude": "47.16615050",
      "longitude": "8.51547490"
   },
   {
      "name": "Zürich",
      "isoCode": "ZH",
      "countryCode": "CH",
      "latitude": "47.35953600",
      "longitude": "8.63564520"
   },
   {
      "name": "Brandenburg",
      "isoCode": "BB",
      "countryCode": "DE",
      "latitude": "52.41252870",
      "longitude": "12.53164440"
   },
   {
      "name": "Berlin",
      "isoCode": "BE",
      "countryCode": "DE",
      "latitude": "52.52000660",
      "longitude": "13.40495400"
   },
   {
      "name": "Baden-Württemberg",
      "isoCode": "BW",
      "countryCode": "DE",
      "latitude": "48.66160370",
      "longitude": "9.35013360"
   },
   {
      "name": "Bavaria",
      "isoCode": "BY",
      "countryCode": "DE",
      "latitude": "48.79044720",
      "longitude": "11.49788950"
   },
   {
      "name": "Bremen",
      "isoCode": "HB",
      "countryCode": "DE",
      "latitude": "53.07929620",
      "longitude": "8.80169360"
   },
   {
      "name": "Hesse",
      "isoCode": "HE",
      "countryCode": "DE",
      "latitude": "50.65205150",
      "longitude": "9.16243760"
   },
   {
      "name": "Hamburg",
      "isoCode": "HH",
      "countryCode": "DE",
      "latitude": "53.55108460",
      "longitude": "9.99368190"
   },
   {
      "name": "Mecklenburg-Vorpommern",
      "isoCode": "MV",
      "countryCode": "DE",
      "latitude": "53.61265050",
      "longitude": "12.42959530"
   },
   {
      "name": "Lower Saxony",
      "isoCode": "NI",
      "countryCode": "DE",
      "latitude": "52.63670360",
      "longitude": "9.84507660"
   },
   {
      "name": "North Rhine-Westphalia",
      "isoCode": "NW",
      "countryCode": "DE",
      "latitude": "51.43323670",
      "longitude": "7.66159380"
   },
   {
      "name": "Rhineland-Palatinate",
      "isoCode": "RP",
      "countryCode": "DE",
      "latitude": "50.11834600",
      "longitude": "7.30895270"
   },
   {
      "name": "Schleswig-Holstein",
      "isoCode": "SH",
      "countryCode": "DE",
      "latitude": "54.21936720",
      "longitude": "9.69611670"
   },
   {
      "name": "Saarland",
      "isoCode": "SL",
      "countryCode": "DE",
      "latitude": "49.39642340",
      "longitude": "7.02296070"
   },
   {
      "name": "Saxony",
      "isoCode": "SN",
      "countryCode": "DE",
      "latitude": "51.10454070",
      "longitude": "13.20173840"
   },
   {
      "name": "Saxony-Anhalt",
      "isoCode": "ST",
      "countryCode": "DE",
      "latitude": "51.95026490",
      "longitude": "11.69227340"
   },
   {
      "name": "Thuringia",
      "isoCode": "TH",
      "countryCode": "DE",
      "latitude": "51.01098920",
      "longitude": "10.84534600"
   },
   {
      "name": "North Denmark Region",
      "isoCode": "81",
      "countryCode": "DK",
      "latitude": "56.83074160",
      "longitude": "9.49305270"
   },
   {
      "name": "Central Denmark Region",
      "isoCode": "82",
      "countryCode": "DK",
      "latitude": "56.30213900",
      "longitude": "9.30277700"
   },
   {
      "name": "Region of Southern Denmark",
      "isoCode": "83",
      "countryCode": "DK",
      "latitude": "55.33077140",
      "longitude": "9.09249030"
   },
   {
      "name": "Capital Region of Denmark",
      "isoCode": "84",
      "countryCode": "DK",
      "latitude": "55.67518120",
      "longitude": "12.54932610"
   },
   {
      "name": "Region Zealand",
      "isoCode": "85",
      "countryCode": "DK",
      "latitude": "55.46325180",
      "longitude": "11.72149790"
   },
   {
      "name": "Andalusia",
      "isoCode": "AN",
      "countryCode": "ES",
      "latitude": "37.54427060",
      "longitude": "-4.72775280"
   },
   {
      "name": "Aragon",
      "isoCode": "AR",
      "countryCode": "ES",
      "latitude": "41.59762750",
      "longitude": "-0.90566230"
   },
   {
      "name": "Asturias",
      "isoCode": "AS",
      "countryCode": "ES",
      "latitude": "43.36139530",
      "longitude": "-5.85932670"
   },
   {
      "name": "Ávila",
      "isoCode": "AV",
      "countryCode": "ES",
      "latitude": "40.69345110",
      "longitude": "-4.89356270"
   },
   {
      "name": "Burgos Province",
      "isoCode": "BU",
      "countryCode": "ES",
      "latitude": "42.33807580",
      "longitude": "-3.58126920"
   },
   {
      "name": "Cantabria",
      "isoCode": "CB",
      "countryCode": "ES",
      "latitude": "43.18283960",
      "longitude": "-3.98784270"
   },
   {
      "name": "Ceuta",
      "isoCode": "CE",
      "countryCode": "ES",
      "latitude": "35.88938740",
      "longitude": "-5.32134550"
   },
   {
      "name": "Castile and León",
      "isoCode": "CL",
      "countryCode": "ES",
      "latitude": "41.83568210",
      "longitude": "-4.39763570"
   },
   {
      "name": "Castilla La Mancha",
      "isoCode": "CM",
      "countryCode": "ES",
      "latitude": "39.27956070",
      "longitude": "-3.09770200"
   },
   {
      "name": "Canary Islands",
      "isoCode": "CN",
      "countryCode": "ES",
      "latitude": "28.29156370",
      "longitude": "-16.62913040"
   },
   {
      "name": "Catalonia",
      "isoCode": "CT",
      "countryCode": "ES",
      "latitude": "41.59115890",
      "longitude": "1.52086240"
   },
   {
      "name": "Extremadura",
      "isoCode": "EX",
      "countryCode": "ES",
      "latitude": "39.49373920",
      "longitude": "-6.06791940"
   },
   {
      "name": "Galicia",
      "isoCode": "GA",
      "countryCode": "ES",
      "latitude": "42.57505540",
      "longitude": "-8.13385580"
   },
   {
      "name": "Léon",
      "isoCode": "LE",
      "countryCode": "ES",
      "latitude": "42.59870410",
      "longitude": "-5.56708390"
   },
   {
      "name": "Murcia",
      "isoCode": "MC",
      "countryCode": "ES",
      "latitude": "38.13981410",
      "longitude": "-1.36621600"
   },
   {
      "name": "Madrid",
      "isoCode": "MD",
      "countryCode": "ES",
      "latitude": "40.41675150",
      "longitude": "-3.70383220"
   },
   {
      "name": "Melilla",
      "isoCode": "ML",
      "countryCode": "ES",
      "latitude": "35.29227750",
      "longitude": "-2.93809730"
   },
   {
      "name": "Navarra",
      "isoCode": "NC",
      "countryCode": "ES",
      "latitude": "42.69539090",
      "longitude": "-1.67606910"
   },
   {
      "name": "Palencia Province",
      "isoCode": "P",
      "countryCode": "ES",
      "latitude": "42.00968320",
      "longitude": "-4.52879490"
   },
   {
      "name": "Balearic Islands",
      "isoCode": "PM",
      "countryCode": "ES",
      "latitude": "39.35877590",
      "longitude": "2.73563280"
   },
   {
      "name": "Basque Country",
      "isoCode": "PV",
      "countryCode": "ES",
      "latitude": "42.98962480",
      "longitude": "-2.61892730"
   },
   {
      "name": "La Rioja",
      "isoCode": "RI",
      "countryCode": "ES",
      "latitude": "42.28707330",
      "longitude": "-2.53960300"
   },
   {
      "name": "Salamanca Province",
      "isoCode": "SA",
      "countryCode": "ES",
      "latitude": "40.95152630",
      "longitude": "-6.23759470"
   },
   {
      "name": "Segovia Province",
      "isoCode": "SG",
      "countryCode": "ES",
      "latitude": "40.94292960",
      "longitude": "-4.10889420"
   },
   {
      "name": "Soria Province",
      "isoCode": "SO",
      "countryCode": "ES",
      "latitude": "41.76654640",
      "longitude": "-2.47903060"
   },
   {
      "name": "Valladolid Province",
      "isoCode": "VA",
      "countryCode": "ES",
      "latitude": "41.65173750",
      "longitude": "-4.72449500"
   },
   {
      "name": "Valencia",
      "isoCode": "VC",
      "countryCode": "ES",
      "latitude": "39.48401080",
      "longitude": "-0.75328090"
   },
   {
      "name": "Zamora Province",
      "isoCode": "ZA",
      "countryCode": "ES",
      "latitude": "41.60957440",
      "longitude": "-5.89871390"
   },
   {
      "name": "Åland Islands",
      "isoCode": "01",
      "countryCode": "FI",
      "latitude": "60.17852470",
      "longitude": "19.91561050"
   },
   {
      "name": "South Karelia",
      "isoCode": "02",
      "countryCode": "FI",
      "latitude": "61.11819490",
      "longitude": "28.10243720"
   },
   {
      "name": "Southern Ostrobothnia",
      "isoCode": "03",
      "countryCode": "FI",
      "latitude": "62.94330990",
      "longitude": "23.52852670"
   },
   {
      "name": "Southern Savonia",
      "isoCode": "04",
      "countryCode": "FI",
      "latitude": "61.69451480",
      "longitude": "27.80050150"
   },
   {
      "name": "Kainuu",
      "isoCode": "05",
      "countryCode": "FI",
      "latitude": "64.37365640",
      "longitude": "28.74374750"
   },
   {
      "name": "Tavastia Proper",
      "isoCode": "06",
      "countryCode": "FI",
      "latitude": "60.90701500",
      "longitude": "24.30054980"
   },
   {
      "name": "Central Ostrobothnia",
      "isoCode": "07",
      "countryCode": "FI",
      "latitude": "63.56217350",
      "longitude": "24.00136310"
   },
   {
      "name": "Central Finland",
      "isoCode": "08",
      "countryCode": "FI",
      "latitude": "62.56667430",
      "longitude": "25.55494450"
   },
   {
      "name": "Kymenlaakso",
      "isoCode": "09",
      "countryCode": "FI",
      "latitude": "60.78051200",
      "longitude": "26.88293360"
   },
   {
      "name": "Pirkanmaa",
      "isoCode": "11",
      "countryCode": "FI",
      "latitude": "61.69869180",
      "longitude": "23.78955980"
   },
   {
      "name": "Ostrobothnia",
      "isoCode": "12",
      "countryCode": "FI",
      "latitude": "63.11817570",
      "longitude": "21.90610620"
   },
   {
      "name": "North Karelia",
      "isoCode": "13",
      "countryCode": "FI",
      "latitude": "62.80620780",
      "longitude": "30.15538870"
   },
   {
      "name": "Northern Ostrobothnia",
      "isoCode": "14",
      "countryCode": "FI",
      "latitude": "65.27949300",
      "longitude": "26.28904170"
   },
   {
      "name": "Northern Savonia",
      "isoCode": "15",
      "countryCode": "FI",
      "latitude": "63.08448000",
      "longitude": "27.02535040"
   },
   {
      "name": "Päijänne Tavastia",
      "isoCode": "16",
      "countryCode": "FI",
      "latitude": "61.32300410",
      "longitude": "25.73224960"
   },
   {
      "name": "Satakunta",
      "isoCode": "17",
      "countryCode": "FI",
      "latitude": "61.59327580",
      "longitude": "22.14830810"
   },
   {
      "name": "Uusimaa",
      "isoCode": "18",
      "countryCode": "FI",
      "latitude": "60.21872000",
      "longitude": "25.27162100"
   },
   {
      "name": "Finland Proper",
      "isoCode": "19",
      "countryCode": "FI",
      "latitude": "60.36279140",
      "longitude": "22.44393690"
   },
   {
      "name": "Eastern Finland Province",
      "isoCode": "IS",
      "countryCode": "FI",
      "latitude": "62.56338910",
      "longitude": "28.50240420"
   },
   {
      "name": "Lapland",
      "isoCode": "LL",
      "countryCode": "FI",
      "latitude": "67.92223040",
      "longitude": "26.50464380"
   },
   {
      "name": "Oulu Province",
      "isoCode": "OL",
      "countryCode": "FI",
      "latitude": "65.01207480",
      "longitude": "25.46504960"
   },
   {
      "name": "Ain",
      "isoCode": "01",
      "countryCode": "FR",
      "latitude": "46.06508600",
      "longitude": "4.88861500"
   },
   {
      "name": "Aisne",
      "isoCode": "02",
      "countryCode": "FR",
      "latitude": "49.45289210",
      "longitude": "3.04651110"
   },
   {
      "name": "Allier",
      "isoCode": "03",
      "countryCode": "FR",
      "latitude": "46.36708630",
      "longitude": "2.58082770"
   },
   {
      "name": "Alpes-de-Haute-Provence",
      "isoCode": "04",
      "countryCode": "FR",
      "latitude": "44.16377520",
      "longitude": "5.67247800"
   },
   {
      "name": "Hautes-Alpes",
      "isoCode": "05",
      "countryCode": "FR",
      "latitude": "44.65626820",
      "longitude": "5.68732110"
   },
   {
      "name": "Alpes-Maritimes",
      "isoCode": "06",
      "countryCode": "FR",
      "latitude": "43.92041700",
      "longitude": "6.61678220"
   },
   {
      "name": "Ardèche",
      "isoCode": "07",
      "countryCode": "FR",
      "latitude": "44.81486950",
      "longitude": "3.81334830"
   },
   {
      "name": "Ardennes",
      "isoCode": "08",
      "countryCode": "FR",
      "latitude": "49.69759510",
      "longitude": "4.14895760"
   },
   {
      "name": "Ariège",
      "isoCode": "09",
      "countryCode": "FR",
      "latitude": "42.94347830",
      "longitude": "0.94048640"
   },
   {
      "name": "Aube",
      "isoCode": "10",
      "countryCode": "FR",
      "latitude": "48.31975470",
      "longitude": "3.56371040"
   },
   {
      "name": "Aude",
      "isoCode": "11",
      "countryCode": "FR",
      "latitude": "43.05411400",
      "longitude": "1.90384760"
   },
   {
      "name": "Aveyron",
      "isoCode": "12",
      "countryCode": "FR",
      "latitude": "44.31563620",
      "longitude": "2.08523790"
   },
   {
      "name": "Bouches-du-Rhône",
      "isoCode": "13",
      "countryCode": "FR",
      "latitude": "43.54038650",
      "longitude": "4.46138290"
   },
   {
      "name": "Calvados",
      "isoCode": "14",
      "countryCode": "FR",
      "latitude": "49.09035140",
      "longitude": "-0.91706480"
   },
   {
      "name": "Cantal",
      "isoCode": "15",
      "countryCode": "FR",
      "latitude": "45.04921770",
      "longitude": "2.15672720"
   },
   {
      "name": "Charente",
      "isoCode": "16",
      "countryCode": "FR",
      "latitude": "45.66584790",
      "longitude": "-0.31845770"
   },
   {
      "name": "Charente-Maritime",
      "isoCode": "17",
      "countryCode": "FR",
      "latitude": "45.72968280",
      "longitude": "-1.33881160"
   },
   {
      "name": "Cher",
      "isoCode": "18",
      "countryCode": "FR",
      "latitude": "47.02436280",
      "longitude": "1.86627320"
   },
   {
      "name": "Corrèze",
      "isoCode": "19",
      "countryCode": "FR",
      "latitude": "45.34237070",
      "longitude": "1.31717330"
   },
   {
      "name": "Corse",
      "isoCode": "20R",
      "countryCode": "FR",
      "latitude": "42.03960420",
      "longitude": "9.01289260"
   },
   {
      "name": "Côte-d'Or",
      "isoCode": "21",
      "countryCode": "FR",
      "latitude": "47.46513020",
      "longitude": "4.23154950"
   },
   {
      "name": "Côtes-d'Armor",
      "isoCode": "22",
      "countryCode": "FR",
      "latitude": "48.46633360",
      "longitude": "-3.34789610"
   },
   {
      "name": "Creuse",
      "isoCode": "23",
      "countryCode": "FR",
      "latitude": "46.05903940",
      "longitude": "1.43150500"
   },
   {
      "name": "Dordogne",
      "isoCode": "24",
      "countryCode": "FR",
      "latitude": "45.14234160",
      "longitude": "0.14274080"
   },
   {
      "name": "Doubs",
      "isoCode": "25",
      "countryCode": "FR",
      "latitude": "46.93217740",
      "longitude": "6.34762140"
   },
   {
      "name": "Drôme",
      "isoCode": "26",
      "countryCode": "FR",
      "latitude": "44.72933570",
      "longitude": "4.67821580"
   },
   {
      "name": "Eure",
      "isoCode": "27",
      "countryCode": "FR",
      "latitude": "49.07540350",
      "longitude": "0.48937320"
   },
   {
      "name": "Eure-et-Loir",
      "isoCode": "28",
      "countryCode": "FR",
      "latitude": "48.44697840",
      "longitude": "0.81470250"
   },
   {
      "name": "Finistère",
      "isoCode": "29",
      "countryCode": "FR",
      "latitude": "48.22696100",
      "longitude": "-4.82437330"
   },
   {
      "name": "Corse-du-Sud",
      "isoCode": "2A",
      "countryCode": "FR",
      "latitude": "41.85720550",
      "longitude": "8.41091830"
   },
   {
      "name": "Haute-Corse",
      "isoCode": "2B",
      "countryCode": "FR",
      "latitude": "42.42958660",
      "longitude": "8.50625610"
   },
   {
      "name": "Gard",
      "isoCode": "30",
      "countryCode": "FR",
      "latitude": "43.95952760",
      "longitude": "3.49356810"
   },
   {
      "name": "Haute-Garonne",
      "isoCode": "31",
      "countryCode": "FR",
      "latitude": "43.30505550",
      "longitude": "0.68455150"
   },
   {
      "name": "Gers",
      "isoCode": "32",
      "countryCode": "FR",
      "latitude": "43.69505340",
      "longitude": "-0.09997280"
   },
   {
      "name": "Gironde",
      "isoCode": "33",
      "countryCode": "FR",
      "latitude": "44.89584690",
      "longitude": "-1.59405320"
   },
   {
      "name": "Hérault",
      "isoCode": "34",
      "countryCode": "FR",
      "latitude": "43.59111200",
      "longitude": "2.80661080"
   },
   {
      "name": "Ille-et-Vilaine",
      "isoCode": "35",
      "countryCode": "FR",
      "latitude": "48.17624840",
      "longitude": "-2.21304010"
   },
   {
      "name": "Indre",
      "isoCode": "36",
      "countryCode": "FR",
      "latitude": "46.81175500",
      "longitude": "0.97555230"
   },
   {
      "name": "Indre-et-Loire",
      "isoCode": "37",
      "countryCode": "FR",
      "latitude": "47.22285820",
      "longitude": "0.14896190"
   },
   {
      "name": "Isère",
      "isoCode": "38",
      "countryCode": "FR",
      "latitude": "45.28922710",
      "longitude": "4.99023550"
   },
   {
      "name": "Jura",
      "isoCode": "39",
      "countryCode": "FR",
      "latitude": "46.78287410",
      "longitude": "5.16918440"
   },
   {
      "name": "Landes",
      "isoCode": "40",
      "countryCode": "FR",
      "latitude": "44.00950800",
      "longitude": "-1.25385790"
   },
   {
      "name": "Loir-et-Cher",
      "isoCode": "41",
      "countryCode": "FR",
      "latitude": "47.65937600",
      "longitude": "0.85376310"
   },
   {
      "name": "Loire",
      "isoCode": "42",
      "countryCode": "FR",
      "latitude": "46.35228120",
      "longitude": "-1.17563390"
   },
   {
      "name": "Haute-Loire",
      "isoCode": "43",
      "countryCode": "FR",
      "latitude": "45.08538060",
      "longitude": "3.22607070"
   },
   {
      "name": "Loire-Atlantique",
      "isoCode": "44",
      "countryCode": "FR",
      "latitude": "47.34757210",
      "longitude": "-2.34663120"
   },
   {
      "name": "Loiret",
      "isoCode": "45",
      "countryCode": "FR",
      "latitude": "47.91354310",
      "longitude": "1.76009900"
   },
   {
      "name": "Lot",
      "isoCode": "46",
      "countryCode": "FR",
      "latitude": "44.62460700",
      "longitude": "1.03576310"
   },
   {
      "name": "Lot-et-Garonne",
      "isoCode": "47",
      "countryCode": "FR",
      "latitude": "44.36873140",
      "longitude": "-0.09161690"
   },
   {
      "name": "Lozère",
      "isoCode": "48",
      "countryCode": "FR",
      "latitude": "44.54227790",
      "longitude": "2.92934590"
   },
   {
      "name": "Maine-et-Loire",
      "isoCode": "49",
      "countryCode": "FR",
      "latitude": "47.38900340",
      "longitude": "-1.12025270"
   },
   {
      "name": "Manche",
      "isoCode": "50",
      "countryCode": "FR",
      "latitude": "49.08817340",
      "longitude": "-2.46272090"
   },
   {
      "name": "Marne",
      "isoCode": "51",
      "countryCode": "FR",
      "latitude": "48.96107450",
      "longitude": "3.65737670"
   },
   {
      "name": "Haute-Marne",
      "isoCode": "52",
      "countryCode": "FR",
      "latitude": "48.13248210",
      "longitude": "4.69834990"
   },
   {
      "name": "Mayenne",
      "isoCode": "53",
      "countryCode": "FR",
      "latitude": "48.30668420",
      "longitude": "-0.64901820"
   },
   {
      "name": "Meurthe-et-Moselle",
      "isoCode": "54",
      "countryCode": "FR",
      "latitude": "48.95566150",
      "longitude": "5.71423500"
   },
   {
      "name": "Meuse",
      "isoCode": "55",
      "countryCode": "FR",
      "latitude": "49.01246200",
      "longitude": "4.81087340"
   },
   {
      "name": "Morbihan",
      "isoCode": "56",
      "countryCode": "FR",
      "latitude": "47.74395180",
      "longitude": "-3.44555240"
   },
   {
      "name": "Moselle",
      "isoCode": "57",
      "countryCode": "FR",
      "latitude": "49.02045660",
      "longitude": "6.20553220"
   },
   {
      "name": "Nièvre",
      "isoCode": "58",
      "countryCode": "FR",
      "latitude": "47.11921640",
      "longitude": "2.97797130"
   },
   {
      "name": "Nord",
      "isoCode": "59",
      "countryCode": "FR",
      "latitude": "50.52854770",
      "longitude": "2.60007760"
   },
   {
      "name": "Oise",
      "isoCode": "60",
      "countryCode": "FR",
      "latitude": "49.41173350",
      "longitude": "1.86688250"
   },
   {
      "name": "Orne",
      "isoCode": "61",
      "countryCode": "FR",
      "latitude": "48.57576440",
      "longitude": "-0.50242950"
   },
   {
      "name": "Pas-de-Calais",
      "isoCode": "62",
      "countryCode": "FR",
      "latitude": "50.51446990",
      "longitude": "1.81149800"
   },
   {
      "name": "Puy-de-Dôme",
      "isoCode": "63",
      "countryCode": "FR",
      "latitude": "45.77141850",
      "longitude": "2.62626760"
   },
   {
      "name": "Pyrénées-Atlantiques",
      "isoCode": "64",
      "countryCode": "FR",
      "latitude": "43.18681700",
      "longitude": "-1.44170710"
   },
   {
      "name": "Hautes-Pyrénées",
      "isoCode": "65",
      "countryCode": "FR",
      "latitude": "43.14294620",
      "longitude": "-0.40097360"
   },
   {
      "name": "Pyrénées-Orientales",
      "isoCode": "66",
      "countryCode": "FR",
      "latitude": "42.62541790",
      "longitude": "1.88929580"
   },
   {
      "name": "Bas-Rhin",
      "isoCode": "67",
      "countryCode": "FR",
      "latitude": "48.59864440",
      "longitude": "7.02666760"
   },
   {
      "name": "Haut-Rhin",
      "isoCode": "68",
      "countryCode": "FR",
      "latitude": "47.86537740",
      "longitude": "6.67113810"
   },
   {
      "name": "Rhône",
      "isoCode": "69",
      "countryCode": "FR",
      "latitude": "44.93433000",
      "longitude": "4.24093290"
   },
   {
      "name": "Métropole de Lyon",
      "isoCode": "69M",
      "countryCode": "FR",
      "latitude": "45.74826290",
      "longitude": "4.59584040"
   },
   {
      "name": "Alsace",
      "isoCode": "6AE",
      "countryCode": "FR",
      "latitude": "48.31817950",
      "longitude": "7.44162410"
   },
   {
      "name": "Haute-Saône",
      "isoCode": "70",
      "countryCode": "FR",
      "latitude": "47.63789960",
      "longitude": "5.53550550"
   },
   {
      "name": "Saône-et-Loire",
      "isoCode": "71",
      "countryCode": "FR",
      "latitude": "46.65548830",
      "longitude": "3.98350500"
   },
   {
      "name": "Sarthe",
      "isoCode": "72",
      "countryCode": "FR",
      "latitude": "48.02627330",
      "longitude": "-0.32613170"
   },
   {
      "name": "Savoie",
      "isoCode": "73",
      "countryCode": "FR",
      "latitude": "45.49469900",
      "longitude": "5.84329840"
   },
   {
      "name": "Haute-Savoie",
      "isoCode": "74",
      "countryCode": "FR",
      "latitude": "46.04452770",
      "longitude": "5.86413800"
   },
   {
      "name": "Paris",
      "isoCode": "75C",
      "countryCode": "FR",
      "latitude": "48.85661400",
      "longitude": "2.35222190"
   },
   {
      "name": "Seine-Maritime",
      "isoCode": "76",
      "countryCode": "FR",
      "latitude": "49.66096810",
      "longitude": "0.36775610"
   },
   {
      "name": "Seine-et-Marne",
      "isoCode": "77",
      "countryCode": "FR",
      "latitude": "48.61853940",
      "longitude": "2.41525610"
   },
   {
      "name": "Yvelines",
      "isoCode": "78",
      "countryCode": "FR",
      "latitude": "48.76153010",
      "longitude": "1.27729490"
   },
   {
      "name": "Deux-Sèvres",
      "isoCode": "79",
      "countryCode": "FR",
      "latitude": "46.53868170",
      "longitude": "-0.90199480"
   },
   {
      "name": "Somme",
      "isoCode": "80",
      "countryCode": "FR",
      "latitude": "49.96859220",
      "longitude": "1.73106960"
   },
   {
      "name": "Tarn",
      "isoCode": "81",
      "countryCode": "FR",
      "latitude": "43.79149770",
      "longitude": "1.67588930"
   },
   {
      "name": "Tarn-et-Garonne",
      "isoCode": "82",
      "countryCode": "FR",
      "latitude": "44.08089500",
      "longitude": "1.08916570"
   },
   {
      "name": "Var",
      "isoCode": "83",
      "countryCode": "FR",
      "latitude": "43.39507300",
      "longitude": "5.73424170"
   },
   {
      "name": "Vaucluse",
      "isoCode": "84",
      "countryCode": "FR",
      "latitude": "44.04475000",
      "longitude": "4.64277180"
   },
   {
      "name": "Vendée",
      "isoCode": "85",
      "countryCode": "FR",
      "latitude": "46.67541030",
      "longitude": "-2.02983920"
   },
   {
      "name": "Vienne",
      "isoCode": "86",
      "countryCode": "FR",
      "latitude": "45.52213140",
      "longitude": "4.84531360"
   },
   {
      "name": "Haute-Vienne",
      "isoCode": "87",
      "countryCode": "FR",
      "latitude": "45.91868780",
      "longitude": "0.70972060"
   },
   {
      "name": "Vosges",
      "isoCode": "88",
      "countryCode": "FR",
      "latitude": "48.16301730",
      "longitude": "5.73556000"
   },
   {
      "name": "Yonne",
      "isoCode": "89",
      "countryCode": "FR",
      "latitude": "47.85476140",
      "longitude": "3.03394040"
   },
   {
      "name": "Territoire de Belfort",
      "isoCode": "90",
      "countryCode": "FR",
      "latitude": "47.62930720",
      "longitude": "6.66962000"
   },
   {
      "name": "Essonne",
      "isoCode": "91",
      "countryCode": "FR",
      "latitude": "48.53046150",
      "longitude": "1.96990560"
   },
   {
      "name": "Hauts-de-Seine",
      "isoCode": "92",
      "countryCode": "FR",
      "latitude": "48.84030080",
      "longitude": "2.10125590"
   },
   {
      "name": "Seine-Saint-Denis",
      "isoCode": "93",
      "countryCode": "FR",
      "latitude": "48.90993180",
      "longitude": "2.30573790"
   },
   {
      "name": "Val-de-Marne",
      "isoCode": "94",
      "countryCode": "FR",
      "latitude": "48.77470040",
      "longitude": "2.32210390"
   },
   {
      "name": "Val-d'Oise",
      "isoCode": "95",
      "countryCode": "FR",
      "latitude": "49.07518180",
      "longitude": "1.82169140"
   },
   {
      "name": "Guadeloupe",
      "isoCode": "971",
      "countryCode": "FR",
      "latitude": "16.26500000",
      "longitude": "-61.55100000"
   },
   {
      "name": "Martinique",
      "isoCode": "972",
      "countryCode": "FR",
      "latitude": "14.64152800",
      "longitude": "-61.02417400"
   },
   {
      "name": "French Guiana",
      "isoCode": "973",
      "countryCode": "FR",
      "latitude": "3.93388900",
      "longitude": "-53.12578200"
   },
   {
      "name": "La Réunion",
      "isoCode": "974",
      "countryCode": "FR",
      "latitude": "-21.11514100",
      "longitude": "55.53638400"
   },
   {
      "name": "Mayotte",
      "isoCode": "976",
      "countryCode": "FR",
      "latitude": "-12.82750000",
      "longitude": "45.16624400"
   },
   {
      "name": "Auvergne-Rhône-Alpes",
      "isoCode": "ARA",
      "countryCode": "FR",
      "latitude": "45.44714310",
      "longitude": "4.38525070"
   },
   {
      "name": "Bourgogne-Franche-Comté",
      "isoCode": "BFC",
      "countryCode": "FR",
      "latitude": "47.28051270",
      "longitude": "4.99943720"
   },
   {
      "name": "Saint-Barthélemy",
      "isoCode": "BL",
      "countryCode": "FR",
      "latitude": "17.90051340",
      "longitude": "-62.82058710"
   },
   {
      "name": "Bretagne",
      "isoCode": "BRE",
      "countryCode": "FR",
      "latitude": "48.20204710",
      "longitude": "-2.93264350"
   },
   {
      "name": "Clipperton",
      "isoCode": "CP",
      "countryCode": "FR",
      "latitude": "10.28335410",
      "longitude": "-109.22542150"
   },
   {
      "name": "Centre-Val de Loire",
      "isoCode": "CVL",
      "countryCode": "FR",
      "latitude": "47.75156860",
      "longitude": "1.67506310"
   },
   {
      "name": "Grand-Est",
      "isoCode": "GES",
      "countryCode": "FR",
      "latitude": "48.69980300",
      "longitude": "6.18780740"
   },
   {
      "name": "Hauts-de-France",
      "isoCode": "HDF",
      "countryCode": "FR",
      "latitude": "50.48011530",
      "longitude": "2.79372650"
   },
   {
      "name": "Île-de-France",
      "isoCode": "IDF",
      "countryCode": "FR",
      "latitude": "48.84991980",
      "longitude": "2.63704110"
   },
   {
      "name": "Saint-Martin",
      "isoCode": "MF",
      "countryCode": "FR",
      "latitude": "18.07082980",
      "longitude": "-63.05008090"
   },
   {
      "name": "Nouvelle-Aquitaine",
      "isoCode": "NAQ",
      "countryCode": "FR",
      "latitude": "45.70871820",
      "longitude": "0.62689100"
   },
   {
      "name": "Normandie",
      "isoCode": "NOR",
      "countryCode": "FR",
      "latitude": "48.87987040",
      "longitude": "0.17125290"
   },
   {
      "name": "Occitanie",
      "isoCode": "OCC",
      "countryCode": "FR",
      "latitude": "43.89272320",
      "longitude": "3.28276250"
   },
   {
      "name": "Provence-Alpes-Côte-d’Azur",
      "isoCode": "PAC",
      "countryCode": "FR",
      "latitude": "43.93516910",
      "longitude": "6.06791940"
   },
   {
      "name": "Pays-de-la-Loire",
      "isoCode": "PDL",
      "countryCode": "FR",
      "latitude": "47.76328360",
      "longitude": "-0.32996870"
   },
   {
      "name": "French Polynesia",
      "isoCode": "PF",
      "countryCode": "FR",
      "latitude": "-17.67974200",
      "longitude": "-149.40684300"
   },
   {
      "name": "Saint Pierre and Miquelon",
      "isoCode": "PM",
      "countryCode": "FR",
      "latitude": "46.88520000",
      "longitude": "-56.31590000"
   },
   {
      "name": "French Southern and Antarctic Lands",
      "isoCode": "TF",
      "countryCode": "FR",
      "latitude": "-47.54466040",
      "longitude": "51.28375420"
   },
   {
      "name": "Wallis and Futuna",
      "isoCode": "WF",
      "countryCode": "FR",
      "latitude": "-14.29380000",
      "longitude": "-178.11650000"
   },
   {
      "name": "Armagh, Banbridge and Craigavon",
      "isoCode": "ABC",
      "countryCode": "GB",
      "latitude": "54.39325920",
      "longitude": "-6.45634010"
   },
   {
      "name": "Aberdeenshire",
      "isoCode": "ABD",
      "countryCode": "GB",
      "latitude": "57.28687230",
      "longitude": "-2.38156840"
   },
   {
      "name": "Aberdeen",
      "isoCode": "ABE",
      "countryCode": "GB",
      "latitude": "57.14971700",
      "longitude": "-2.09427800"
   },
   {
      "name": "Argyll and Bute",
      "isoCode": "AGB",
      "countryCode": "GB",
      "latitude": "56.40062140",
      "longitude": "-5.48074800"
   },
   {
      "name": "Ards and North Down",
      "isoCode": "AND",
      "countryCode": "GB",
      "latitude": "54.58996450",
      "longitude": "-5.59849720"
   },
   {
      "name": "Antrim and Newtownabbey",
      "isoCode": "ANN",
      "countryCode": "GB",
      "latitude": "54.69568870",
      "longitude": "-5.94810690"
   },
   {
      "name": "Angus",
      "isoCode": "ANS",
      "countryCode": "GB",
      "latitude": "37.27578860",
      "longitude": "-95.65010330"
   },
   {
      "name": "Antrim",
      "isoCode": "ANT",
      "countryCode": "GB",
      "latitude": "54.71953380",
      "longitude": "-6.20724980"
   },
   {
      "name": "Ards",
      "isoCode": "ARD",
      "countryCode": "GB",
      "latitude": "42.13918510",
      "longitude": "-87.86149720"
   },
   {
      "name": "Armagh City and District Council",
      "isoCode": "ARM",
      "countryCode": "GB",
      "latitude": "54.39325920",
      "longitude": "-6.45634010"
   },
   {
      "name": "Bath and North East Somerset",
      "isoCode": "BAS",
      "countryCode": "GB",
      "latitude": "51.32501020",
      "longitude": "-2.47662410"
   },
   {
      "name": "Blackburn with Darwen",
      "isoCode": "BBD",
      "countryCode": "GB",
      "latitude": "53.69575220",
      "longitude": "-2.46829850"
   },
   {
      "name": "Bedford",
      "isoCode": "BDF",
      "countryCode": "GB",
      "latitude": "32.84401700",
      "longitude": "-97.14306710"
   },
   {
      "name": "London Borough of Barking and Dagenham",
      "isoCode": "BDG",
      "countryCode": "GB",
      "latitude": "51.55406660",
      "longitude": "0.13401700"
   },
   {
      "name": "London Borough of Brent",
      "isoCode": "BEN",
      "countryCode": "GB",
      "latitude": "51.56728080",
      "longitude": "-0.27105680"
   },
   {
      "name": "London Borough of Bexley",
      "isoCode": "BEX",
      "countryCode": "GB",
      "latitude": "51.45190210",
      "longitude": "0.11717860"
   },
   {
      "name": "Belfast district",
      "isoCode": "BFS",
      "countryCode": "GB",
      "latitude": "54.61703660",
      "longitude": "-5.95318610"
   },
   {
      "name": "Bridgend County Borough",
      "isoCode": "BGE",
      "countryCode": "GB",
      "latitude": "51.50831990",
      "longitude": "-3.58120750"
   },
   {
      "name": "Blaenau Gwent County Borough",
      "isoCode": "BGW",
      "countryCode": "GB",
      "latitude": "51.78757790",
      "longitude": "-3.20439310"
   },
   {
      "name": "Birmingham",
      "isoCode": "BIR",
      "countryCode": "GB",
      "latitude": "33.51858920",
      "longitude": "-86.81035670"
   },
   {
      "name": "Buckinghamshire",
      "isoCode": "BKM",
      "countryCode": "GB",
      "latitude": "51.80722040",
      "longitude": "-0.81276640"
   },
   {
      "name": "Ballymena Borough",
      "isoCode": "BLA",
      "countryCode": "GB",
      "latitude": "54.86426000",
      "longitude": "-6.27910740"
   },
   {
      "name": "Ballymoney",
      "isoCode": "BLY",
      "countryCode": "GB",
      "latitude": "55.07048880",
      "longitude": "-6.51737080"
   },
   {
      "name": "Bournemouth",
      "isoCode": "BMH",
      "countryCode": "GB",
      "latitude": "50.71916400",
      "longitude": "-1.88076900"
   },
   {
      "name": "Banbridge",
      "isoCode": "BNB",
      "countryCode": "GB",
      "latitude": "54.34872900",
      "longitude": "-6.27048030"
   },
   {
      "name": "London Borough of Barnet",
      "isoCode": "BNE",
      "countryCode": "GB",
      "latitude": "51.60496730",
      "longitude": "-0.20762950"
   },
   {
      "name": "Brighton and Hove",
      "isoCode": "BNH",
      "countryCode": "GB",
      "latitude": "50.82262880",
      "longitude": "-0.13704700"
   },
   {
      "name": "Barnsley",
      "isoCode": "BNS",
      "countryCode": "GB",
      "latitude": "34.29949560",
      "longitude": "-84.98458090"
   },
   {
      "name": "Bolton",
      "isoCode": "BOL",
      "countryCode": "GB",
      "latitude": "44.37264760",
      "longitude": "-72.87876250"
   },
   {
      "name": "Blackpool",
      "isoCode": "BPL",
      "countryCode": "GB",
      "latitude": "53.81750530",
      "longitude": "-3.03567480"
   },
   {
      "name": "Bracknell Forest",
      "isoCode": "BRC",
      "countryCode": "GB",
      "latitude": "51.41538280",
      "longitude": "-0.75364950"
   },
   {
      "name": "Bradford",
      "isoCode": "BRD",
      "countryCode": "GB",
      "latitude": "53.79598400",
      "longitude": "-1.75939800"
   },
   {
      "name": "London Borough of Bromley",
      "isoCode": "BRY",
      "countryCode": "GB",
      "latitude": "51.36797050",
      "longitude": "0.07006200"
   },
   {
      "name": "City of Bristol",
      "isoCode": "BST",
      "countryCode": "GB",
      "latitude": "41.67352200",
      "longitude": "-72.94653750"
   },
   {
      "name": "Bury",
      "isoCode": "BUR",
      "countryCode": "GB",
      "latitude": "53.59334980",
      "longitude": "-2.29660540"
   },
   {
      "name": "Cambridgeshire",
      "isoCode": "CAM",
      "countryCode": "GB",
      "latitude": "52.20529730",
      "longitude": "0.12181950"
   },
   {
      "name": "Caerphilly County Borough",
      "isoCode": "CAY",
      "countryCode": "GB",
      "latitude": "51.66044650",
      "longitude": "-3.21787240"
   },
   {
      "name": "Central Bedfordshire",
      "isoCode": "CBF",
      "countryCode": "GB",
      "latitude": "52.00297440",
      "longitude": "-0.46513890"
   },
   {
      "name": "Causeway Coast and Glens",
      "isoCode": "CCG",
      "countryCode": "GB",
      "latitude": "55.04318300",
      "longitude": "-6.67412880"
   },
   {
      "name": "Ceredigion",
      "isoCode": "CGN",
      "countryCode": "GB",
      "latitude": "52.21914290",
      "longitude": "-3.93212560"
   },
   {
      "name": "Craigavon Borough Council",
      "isoCode": "CGV",
      "countryCode": "GB",
      "latitude": "54.39325920",
      "longitude": "-6.45634010"
   },
   {
      "name": "Cheshire East",
      "isoCode": "CHE",
      "countryCode": "GB",
      "latitude": "53.16104460",
      "longitude": "-2.21859320"
   },
   {
      "name": "Cheshire West and Chester",
      "isoCode": "CHW",
      "countryCode": "GB",
      "latitude": "53.23029740",
      "longitude": "-2.71511170"
   },
   {
      "name": "Carrickfergus Borough Council",
      "isoCode": "CKF",
      "countryCode": "GB",
      "latitude": "54.72568430",
      "longitude": "-5.80937190"
   },
   {
      "name": "Cookstown District Council",
      "isoCode": "CKT",
      "countryCode": "GB",
      "latitude": "54.64181580",
      "longitude": "-6.74438950"
   },
   {
      "name": "Calderdale",
      "isoCode": "CLD",
      "countryCode": "GB",
      "latitude": "53.72478450",
      "longitude": "-1.86583570"
   },
   {
      "name": "Clackmannanshire",
      "isoCode": "CLK",
      "countryCode": "GB",
      "latitude": "56.10753510",
      "longitude": "-3.75294090"
   },
   {
      "name": "Coleraine Borough Council",
      "isoCode": "CLR",
      "countryCode": "GB",
      "latitude": "55.14515700",
      "longitude": "-6.67598140"
   },
   {
      "name": "Cumbria",
      "isoCode": "CMA",
      "countryCode": "GB",
      "latitude": "54.57723230",
      "longitude": "-2.79748350"
   },
   {
      "name": "London Borough of Camden",
      "isoCode": "CMD",
      "countryCode": "GB",
      "latitude": "51.54547360",
      "longitude": "-0.16279020"
   },
   {
      "name": "Carmarthenshire",
      "isoCode": "CMN",
      "countryCode": "GB",
      "latitude": "51.85723090",
      "longitude": "-4.31159590"
   },
   {
      "name": "Cornwall",
      "isoCode": "CON",
      "countryCode": "GB",
      "latitude": "50.26604710",
      "longitude": "-5.05271250"
   },
   {
      "name": "Coventry",
      "isoCode": "COV",
      "countryCode": "GB",
      "latitude": "52.40682200",
      "longitude": "-1.51969300"
   },
   {
      "name": "City and County of Cardiff",
      "isoCode": "CRF",
      "countryCode": "GB",
      "latitude": "51.48158100",
      "longitude": "-3.17909000"
   },
   {
      "name": "London Borough of Croydon",
      "isoCode": "CRY",
      "countryCode": "GB",
      "latitude": "51.38274460",
      "longitude": "-0.09851630"
   },
   {
      "name": "Castlereagh",
      "isoCode": "CSR",
      "countryCode": "GB",
      "latitude": "54.57567900",
      "longitude": "-5.88840280"
   },
   {
      "name": "Conwy County Borough",
      "isoCode": "CWY",
      "countryCode": "GB",
      "latitude": "53.29350130",
      "longitude": "-3.72651610"
   },
   {
      "name": "Darlington",
      "isoCode": "DAL",
      "countryCode": "GB",
      "latitude": "34.29987620",
      "longitude": "-79.87617410"
   },
   {
      "name": "Derbyshire",
      "isoCode": "DBY",
      "countryCode": "GB",
      "latitude": "53.10467820",
      "longitude": "-1.56238850"
   },
   {
      "name": "Denbighshire",
      "isoCode": "DEN",
      "countryCode": "GB",
      "latitude": "53.18422880",
      "longitude": "-3.42249850"
   },
   {
      "name": "City of Derby",
      "isoCode": "DER",
      "countryCode": "GB",
      "latitude": "37.54837550",
      "longitude": "-97.24851910"
   },
   {
      "name": "Devon",
      "isoCode": "DEV",
      "countryCode": "GB",
      "latitude": "50.71555910",
      "longitude": "-3.53087500"
   },
   {
      "name": "Dungannon and South Tyrone Borough Council",
      "isoCode": "DGN",
      "countryCode": "GB",
      "latitude": "54.50826840",
      "longitude": "-6.76658910"
   },
   {
      "name": "Dumfries and Galloway",
      "isoCode": "DGY",
      "countryCode": "GB",
      "latitude": "55.07010730",
      "longitude": "-3.60525810"
   },
   {
      "name": "Doncaster",
      "isoCode": "DNC",
      "countryCode": "GB",
      "latitude": "53.52282000",
      "longitude": "-1.12846200"
   },
   {
      "name": "Dundee",
      "isoCode": "DND",
      "countryCode": "GB",
      "latitude": "56.46201800",
      "longitude": "-2.97072100"
   },
   {
      "name": "Dorset",
      "isoCode": "DOR",
      "countryCode": "GB",
      "latitude": "50.74876350",
      "longitude": "-2.34447860"
   },
   {
      "name": "Down District Council",
      "isoCode": "DOW",
      "countryCode": "GB",
      "latitude": "54.24342870",
      "longitude": "-5.95779590"
   },
   {
      "name": "Derry City and Strabane",
      "isoCode": "DRS",
      "countryCode": "GB",
      "latitude": "55.00474430",
      "longitude": "-7.32092220"
   },
   {
      "name": "Derry City Council",
      "isoCode": "DRY",
      "countryCode": "GB",
      "latitude": "54.96907780",
      "longitude": "-7.19583510"
   },
   {
      "name": "Dudley",
      "isoCode": "DUD",
      "countryCode": "GB",
      "latitude": "42.04336610",
      "longitude": "-71.92760330"
   },
   {
      "name": "County Durham",
      "isoCode": "DUR",
      "countryCode": "GB",
      "latitude": "54.72940990",
      "longitude": "-1.88115980"
   },
   {
      "name": "London Borough of Ealing",
      "isoCode": "EAL",
      "countryCode": "GB",
      "latitude": "51.52503660",
      "longitude": "-0.34139650"
   },
   {
      "name": "East Ayrshire",
      "isoCode": "EAY",
      "countryCode": "GB",
      "latitude": "55.45184960",
      "longitude": "-4.26444780"
   },
   {
      "name": "Edinburgh",
      "isoCode": "EDH",
      "countryCode": "GB",
      "latitude": "55.95325200",
      "longitude": "-3.18826700"
   },
   {
      "name": "East Dunbartonshire",
      "isoCode": "EDU",
      "countryCode": "GB",
      "latitude": "55.97431620",
      "longitude": "-4.20229800"
   },
   {
      "name": "East Lothian",
      "isoCode": "ELN",
      "countryCode": "GB",
      "latitude": "55.94933830",
      "longitude": "-2.77044640"
   },
   {
      "name": "Outer Hebrides",
      "isoCode": "ELS",
      "countryCode": "GB",
      "latitude": "57.75989180",
      "longitude": "-7.01940340"
   },
   {
      "name": "London Borough of Enfield",
      "isoCode": "ENF",
      "countryCode": "GB",
      "latitude": "51.66229090",
      "longitude": "-0.11806510"
   },
   {
      "name": "England",
      "isoCode": "ENG",
      "countryCode": "GB",
      "latitude": "52.35551770",
      "longitude": "-1.17431970"
   },
   {
      "name": "East Renfrewshire",
      "isoCode": "ERW",
      "countryCode": "GB",
      "latitude": "55.77047350",
      "longitude": "-4.33598210"
   },
   {
      "name": "East Riding of Yorkshire",
      "isoCode": "ERY",
      "countryCode": "GB",
      "latitude": "53.84161680",
      "longitude": "-0.43441060"
   },
   {
      "name": "Essex",
      "isoCode": "ESS",
      "countryCode": "GB",
      "latitude": "51.57424470",
      "longitude": "0.48567810"
   },
   {
      "name": "East Sussex",
      "isoCode": "ESX",
      "countryCode": "GB",
      "latitude": "50.90859550",
      "longitude": "0.24941660"
   },
   {
      "name": "Falkirk",
      "isoCode": "FAL",
      "countryCode": "GB",
      "latitude": "56.00187750",
      "longitude": "-3.78391310"
   },
   {
      "name": "Fermanagh District Council",
      "isoCode": "FER",
      "countryCode": "GB",
      "latitude": "54.34479780",
      "longitude": "-7.63842180"
   },
   {
      "name": "Fife",
      "isoCode": "FIF",
      "countryCode": "GB",
      "latitude": "56.20820780",
      "longitude": "-3.14951750"
   },
   {
      "name": "Flintshire",
      "isoCode": "FLN",
      "countryCode": "GB",
      "latitude": "53.16686580",
      "longitude": "-3.14189080"
   },
   {
      "name": "Fermanagh and Omagh",
      "isoCode": "FMO",
      "countryCode": "GB",
      "latitude": "54.45135240",
      "longitude": "-7.71250180"
   },
   {
      "name": "Gateshead",
      "isoCode": "GAT",
      "countryCode": "GB",
      "latitude": "54.95268000",
      "longitude": "-1.60341100"
   },
   {
      "name": "Glasgow",
      "isoCode": "GLG",
      "countryCode": "GB",
      "latitude": "55.86423700",
      "longitude": "-4.25180600"
   },
   {
      "name": "Gloucestershire",
      "isoCode": "GLS",
      "countryCode": "GB",
      "latitude": "51.86421120",
      "longitude": "-2.23803350"
   },
   {
      "name": "Royal Borough of Greenwich",
      "isoCode": "GRE",
      "countryCode": "GB",
      "latitude": "51.48346270",
      "longitude": "0.05862020"
   },
   {
      "name": "Gwynedd",
      "isoCode": "GWN",
      "countryCode": "GB",
      "latitude": "52.92772660",
      "longitude": "-4.13348360"
   },
   {
      "name": "Halton",
      "isoCode": "HAL",
      "countryCode": "GB",
      "latitude": "43.53253720",
      "longitude": "-79.87448360"
   },
   {
      "name": "Hampshire",
      "isoCode": "HAM",
      "countryCode": "GB",
      "latitude": "51.05769480",
      "longitude": "-1.30806290"
   },
   {
      "name": "London Borough of Havering",
      "isoCode": "HAV",
      "countryCode": "GB",
      "latitude": "51.57792400",
      "longitude": "0.21208290"
   },
   {
      "name": "London Borough of Hackney",
      "isoCode": "HCK",
      "countryCode": "GB",
      "latitude": "51.57344500",
      "longitude": "-0.07243760"
   },
   {
      "name": "Herefordshire",
      "isoCode": "HEF",
      "countryCode": "GB",
      "latitude": "52.07651640",
      "longitude": "-2.65441820"
   },
   {
      "name": "London Borough of Hillingdon",
      "isoCode": "HIL",
      "countryCode": "GB",
      "latitude": "51.53518320",
      "longitude": "-0.44813780"
   },
   {
      "name": "Highland",
      "isoCode": "HLD",
      "countryCode": "GB",
      "latitude": "36.29675080",
      "longitude": "-95.83803660"
   },
   {
      "name": "London Borough of Hammersmith and Fulham",
      "isoCode": "HMF",
      "countryCode": "GB",
      "latitude": "51.49901560",
      "longitude": "-0.22915000"
   },
   {
      "name": "London Borough of Hounslow",
      "isoCode": "HNS",
      "countryCode": "GB",
      "latitude": "51.48283580",
      "longitude": "-0.38820620"
   },
   {
      "name": "Hartlepool",
      "isoCode": "HPL",
      "countryCode": "GB",
      "latitude": "54.69174500",
      "longitude": "-1.21292600"
   },
   {
      "name": "Hertfordshire",
      "isoCode": "HRT",
      "countryCode": "GB",
      "latitude": "51.80978230",
      "longitude": "-0.23767440"
   },
   {
      "name": "London Borough of Harrow",
      "isoCode": "HRW",
      "countryCode": "GB",
      "latitude": "51.58816270",
      "longitude": "-0.34228510"
   },
   {
      "name": "London Borough of Haringey",
      "isoCode": "HRY",
      "countryCode": "GB",
      "latitude": "51.59061130",
      "longitude": "-0.11097090"
   },
   {
      "name": "Isles of Scilly",
      "isoCode": "IOS",
      "countryCode": "GB",
      "latitude": "49.92772610",
      "longitude": "-6.32749660"
   },
   {
      "name": "Isle of Wight",
      "isoCode": "IOW",
      "countryCode": "GB",
      "latitude": "50.69384790",
      "longitude": "-1.30473400"
   },
   {
      "name": "London Borough of Islington",
      "isoCode": "ISL",
      "countryCode": "GB",
      "latitude": "51.54650630",
      "longitude": "-0.10580580"
   },
   {
      "name": "Inverclyde",
      "isoCode": "IVC",
      "countryCode": "GB",
      "latitude": "55.93165690",
      "longitude": "-4.68001580"
   },
   {
      "name": "Royal Borough of Kensington and Chelsea",
      "isoCode": "KEC",
      "countryCode": "GB",
      "latitude": "51.49908050",
      "longitude": "-0.19382530"
   },
   {
      "name": "Kent",
      "isoCode": "KEN",
      "countryCode": "GB",
      "latitude": "41.15366740",
      "longitude": "-81.35788590"
   },
   {
      "name": "City of Kingston upon Hull",
      "isoCode": "KHL",
      "countryCode": "GB",
      "latitude": "53.76762360",
      "longitude": "-0.32741980"
   },
   {
      "name": "Kirklees",
      "isoCode": "KIR",
      "countryCode": "GB",
      "latitude": "53.59334320",
      "longitude": "-1.80095090"
   },
   {
      "name": "Royal Borough of Kingston upon Thames",
      "isoCode": "KTT",
      "countryCode": "GB",
      "latitude": "51.37811700",
      "longitude": "-0.29270900"
   },
   {
      "name": "Knowsley",
      "isoCode": "KWL",
      "countryCode": "GB",
      "latitude": "53.45459400",
      "longitude": "-2.85290700"
   },
   {
      "name": "Lancashire",
      "isoCode": "LAN",
      "countryCode": "GB",
      "latitude": "53.76322540",
      "longitude": "-2.70440520"
   },
   {
      "name": "Lisburn and Castlereagh",
      "isoCode": "LBC",
      "countryCode": "GB",
      "latitude": "54.49815840",
      "longitude": "-6.13067910"
   },
   {
      "name": "London Borough of Lambeth",
      "isoCode": "LBH",
      "countryCode": "GB",
      "latitude": "51.45714770",
      "longitude": "-0.12306810"
   },
   {
      "name": "City of Leicester",
      "isoCode": "LCE",
      "countryCode": "GB",
      "latitude": "52.63687780",
      "longitude": "-1.13975920"
   },
   {
      "name": "Leeds",
      "isoCode": "LDS",
      "countryCode": "GB",
      "latitude": "53.80075540",
      "longitude": "-1.54907740"
   },
   {
      "name": "Leicestershire",
      "isoCode": "LEC",
      "countryCode": "GB",
      "latitude": "52.77257100",
      "longitude": "-1.20521260"
   },
   {
      "name": "London Borough of Lewisham",
      "isoCode": "LEW",
      "countryCode": "GB",
      "latitude": "51.44145790",
      "longitude": "-0.01170060"
   },
   {
      "name": "Lincolnshire",
      "isoCode": "LIN",
      "countryCode": "GB",
      "latitude": "52.94518890",
      "longitude": "-0.16012460"
   },
   {
      "name": "Liverpool",
      "isoCode": "LIV",
      "countryCode": "GB",
      "latitude": "32.65649810",
      "longitude": "-115.47632410"
   },
   {
      "name": "Limavady Borough Council",
      "isoCode": "LMV",
      "countryCode": "GB",
      "latitude": "55.05168200",
      "longitude": "-6.94919440"
   },
   {
      "name": "City of London",
      "isoCode": "LND",
      "countryCode": "GB",
      "latitude": "51.51234430",
      "longitude": "-0.09098520"
   },
   {
      "name": "Larne Borough Council",
      "isoCode": "LRN",
      "countryCode": "GB",
      "latitude": "54.85780030",
      "longitude": "-5.82362240"
   },
   {
      "name": "Lisburn City Council",
      "isoCode": "LSB",
      "countryCode": "GB",
      "latitude": "54.49815840",
      "longitude": "-6.13067910"
   },
   {
      "name": "Manchester",
      "isoCode": "MAN",
      "countryCode": "GB",
      "latitude": "53.48075930",
      "longitude": "-2.24263050"
   },
   {
      "name": "Middlesbrough",
      "isoCode": "MDB",
      "countryCode": "GB",
      "latitude": "54.57422700",
      "longitude": "-1.23495600"
   },
   {
      "name": "Medway",
      "isoCode": "MDW",
      "countryCode": "GB",
      "latitude": "42.14176410",
      "longitude": "-71.39672560"
   },
   {
      "name": "Mid and East Antrim",
      "isoCode": "MEA",
      "countryCode": "GB",
      "latitude": "54.93993410",
      "longitude": "-6.11374230"
   },
   {
      "name": "Magherafelt District Council",
      "isoCode": "MFT",
      "countryCode": "GB",
      "latitude": "54.75532790",
      "longitude": "-6.60774870"
   },
   {
      "name": "Milton Keynes",
      "isoCode": "MIK",
      "countryCode": "GB",
      "latitude": "52.08520380",
      "longitude": "-0.73331330"
   },
   {
      "name": "Midlothian",
      "isoCode": "MLN",
      "countryCode": "GB",
      "latitude": "32.47533500",
      "longitude": "-97.01031810"
   },
   {
      "name": "Monmouthshire",
      "isoCode": "MON",
      "countryCode": "GB",
      "latitude": "51.81161000",
      "longitude": "-2.71634170"
   },
   {
      "name": "London Borough of Merton",
      "isoCode": "MRT",
      "countryCode": "GB",
      "latitude": "51.40977420",
      "longitude": "-0.21080840"
   },
   {
      "name": "Moray",
      "isoCode": "MRY",
      "countryCode": "GB",
      "latitude": "57.64984760",
      "longitude": "-3.31680390"
   },
   {
      "name": "Merthyr Tydfil County Borough",
      "isoCode": "MTY",
      "countryCode": "GB",
      "latitude": "51.74674740",
      "longitude": "-3.38132750"
   },
   {
      "name": "Mid Ulster",
      "isoCode": "MUL",
      "countryCode": "GB",
      "latitude": "54.64113010",
      "longitude": "-6.75225490"
   },
   {
      "name": "Moyle District Council",
      "isoCode": "MYL",
      "countryCode": "GB",
      "latitude": "55.20473270",
      "longitude": "-6.25317400"
   },
   {
      "name": "North Ayrshire",
      "isoCode": "NAY",
      "countryCode": "GB",
      "latitude": "55.64167310",
      "longitude": "-4.75946000"
   },
   {
      "name": "Northumberland",
      "isoCode": "NBL",
      "countryCode": "GB",
      "latitude": "55.20825420",
      "longitude": "-2.07841380"
   },
   {
      "name": "North Down Borough Council",
      "isoCode": "NDN",
      "countryCode": "GB",
      "latitude": "54.65362970",
      "longitude": "-5.67249250"
   },
   {
      "name": "North East Lincolnshire",
      "isoCode": "NEL",
      "countryCode": "GB",
      "latitude": "53.56682010",
      "longitude": "-0.08150660"
   },
   {
      "name": "Newcastle upon Tyne",
      "isoCode": "NET",
      "countryCode": "GB",
      "latitude": "54.97825200",
      "longitude": "-1.61778000"
   },
   {
      "name": "Norfolk",
      "isoCode": "NFK",
      "countryCode": "GB",
      "latitude": "36.85076890",
      "longitude": "-76.28587260"
   },
   {
      "name": "City of Nottingham",
      "isoCode": "NGM",
      "countryCode": "GB",
      "latitude": "52.95478320",
      "longitude": "-1.15810860"
   },
   {
      "name": "Northern Ireland",
      "isoCode": "NIR",
      "countryCode": "GB",
      "latitude": "54.78771490",
      "longitude": "-6.49231450"
   },
   {
      "name": "North Lanarkshire",
      "isoCode": "NLK",
      "countryCode": "GB",
      "latitude": "55.86624320",
      "longitude": "-3.96131440"
   },
   {
      "name": "North Lincolnshire",
      "isoCode": "NLN",
      "countryCode": "GB",
      "latitude": "53.60555920",
      "longitude": "-0.55965820"
   },
   {
      "name": "Newry, Mourne and Down",
      "isoCode": "NMD",
      "countryCode": "GB",
      "latitude": "54.24342870",
      "longitude": "-5.95779590"
   },
   {
      "name": "North Somerset",
      "isoCode": "NSM",
      "countryCode": "GB",
      "latitude": "51.38790280",
      "longitude": "-2.77810910"
   },
   {
      "name": "Newtownabbey Borough Council",
      "isoCode": "NTA",
      "countryCode": "GB",
      "latitude": "54.67924220",
      "longitude": "-5.95911020"
   },
   {
      "name": "Northamptonshire",
      "isoCode": "NTH",
      "countryCode": "GB",
      "latitude": "52.27299440",
      "longitude": "-0.87555150"
   },
   {
      "name": "Neath Port Talbot County Borough",
      "isoCode": "NTL",
      "countryCode": "GB",
      "latitude": "51.59785190",
      "longitude": "-3.78396680"
   },
   {
      "name": "Nottinghamshire",
      "isoCode": "NTT",
      "countryCode": "GB",
      "latitude": "53.10031900",
      "longitude": "-0.99363060"
   },
   {
      "name": "North Tyneside",
      "isoCode": "NTY",
      "countryCode": "GB",
      "latitude": "55.01823990",
      "longitude": "-1.48584360"
   },
   {
      "name": "London Borough of Newham",
      "isoCode": "NWM",
      "countryCode": "GB",
      "latitude": "51.52551620",
      "longitude": "0.03521630"
   },
   {
      "name": "Newport",
      "isoCode": "NWP",
      "countryCode": "GB",
      "latitude": "37.52782340",
      "longitude": "-94.10438760"
   },
   {
      "name": "North Yorkshire",
      "isoCode": "NYK",
      "countryCode": "GB",
      "latitude": "53.99150280",
      "longitude": "-1.54120150"
   },
   {
      "name": "Newry and Mourne District Council",
      "isoCode": "NYM",
      "countryCode": "GB",
      "latitude": "54.17425050",
      "longitude": "-6.33919920"
   },
   {
      "name": "Oldham",
      "isoCode": "OLD",
      "countryCode": "GB",
      "latitude": "42.20405980",
      "longitude": "-71.20481190"
   },
   {
      "name": "Omagh District Council",
      "isoCode": "OMH",
      "countryCode": "GB",
      "latitude": "54.45135240",
      "longitude": "-7.71250180"
   },
   {
      "name": "Orkney Islands",
      "isoCode": "ORK",
      "countryCode": "GB",
      "latitude": "58.98094010",
      "longitude": "-2.96052060"
   },
   {
      "name": "Oxfordshire",
      "isoCode": "OXF",
      "countryCode": "GB",
      "latitude": "51.76120560",
      "longitude": "-1.24646740"
   },
   {
      "name": "Pembrokeshire",
      "isoCode": "PEM",
      "countryCode": "GB",
      "latitude": "51.67407800",
      "longitude": "-4.90887850"
   },
   {
      "name": "Perth and Kinross",
      "isoCode": "PKN",
      "countryCode": "GB",
      "latitude": "56.39538170",
      "longitude": "-3.42835470"
   },
   {
      "name": "City of Plymouth",
      "isoCode": "PLY",
      "countryCode": "GB",
      "latitude": "42.37089410",
      "longitude": "-83.46971410"
   },
   {
      "name": "Poole",
      "isoCode": "POL",
      "countryCode": "GB",
      "latitude": "50.71505000",
      "longitude": "-1.98724800"
   },
   {
      "name": "City of Portsmouth",
      "isoCode": "POR",
      "countryCode": "GB",
      "latitude": "36.83291500",
      "longitude": "-76.29755490"
   },
   {
      "name": "Powys",
      "isoCode": "POW",
      "countryCode": "GB",
      "latitude": "52.64642490",
      "longitude": "-3.32609040"
   },
   {
      "name": "City of Peterborough",
      "isoCode": "PTE",
      "countryCode": "GB",
      "latitude": "44.30936360",
      "longitude": "-78.32015300"
   },
   {
      "name": "Redcar and Cleveland",
      "isoCode": "RCC",
      "countryCode": "GB",
      "latitude": "54.59713440",
      "longitude": "-1.07759970"
   },
   {
      "name": "Rochdale",
      "isoCode": "RCH",
      "countryCode": "GB",
      "latitude": "53.60971360",
      "longitude": "-2.15610000"
   },
   {
      "name": "Rhondda Cynon Taf",
      "isoCode": "RCT",
      "countryCode": "GB",
      "latitude": "51.64902070",
      "longitude": "-3.42886920"
   },
   {
      "name": "London Borough of Redbridge",
      "isoCode": "RDB",
      "countryCode": "GB",
      "latitude": "51.58861210",
      "longitude": "0.08239820"
   },
   {
      "name": "Reading",
      "isoCode": "RDG",
      "countryCode": "GB",
      "latitude": "36.14866590",
      "longitude": "-95.98400120"
   },
   {
      "name": "Renfrewshire",
      "isoCode": "RFW",
      "countryCode": "GB",
      "latitude": "55.84665400",
      "longitude": "-4.53312590"
   },
   {
      "name": "London Borough of Richmond upon Thames",
      "isoCode": "RIC",
      "countryCode": "GB",
      "latitude": "51.46130540",
      "longitude": "-0.30377090"
   },
   {
      "name": "Rotherham",
      "isoCode": "ROT",
      "countryCode": "GB",
      "latitude": "53.43260350",
      "longitude": "-1.36350090"
   },
   {
      "name": "Rutland",
      "isoCode": "RUT",
      "countryCode": "GB",
      "latitude": "43.61062370",
      "longitude": "-72.97260650"
   },
   {
      "name": "Sandwell",
      "isoCode": "SAW",
      "countryCode": "GB",
      "latitude": "52.53616740",
      "longitude": "-2.01079300"
   },
   {
      "name": "South Ayrshire",
      "isoCode": "SAY",
      "countryCode": "GB",
      "latitude": "55.45889880",
      "longitude": "-4.62919940"
   },
   {
      "name": "Scottish Borders",
      "isoCode": "SCB",
      "countryCode": "GB",
      "latitude": "55.54856970",
      "longitude": "-2.78613880"
   },
   {
      "name": "Scotland",
      "isoCode": "SCT",
      "countryCode": "GB",
      "latitude": "56.49067120",
      "longitude": "-4.20264580"
   },
   {
      "name": "Suffolk",
      "isoCode": "SFK",
      "countryCode": "GB",
      "latitude": "52.18724720",
      "longitude": "0.97078010"
   },
   {
      "name": "Sefton",
      "isoCode": "SFT",
      "countryCode": "GB",
      "latitude": "53.50344490",
      "longitude": "-2.97035900"
   },
   {
      "name": "South Gloucestershire",
      "isoCode": "SGC",
      "countryCode": "GB",
      "latitude": "51.52643610",
      "longitude": "-2.47284870"
   },
   {
      "name": "Ascension Island",
      "isoCode": "SH-AC",
      "countryCode": "GB",
      "latitude": "-7.94671660",
      "longitude": "-14.35591580"
   },
   {
      "name": "Saint Helena",
      "isoCode": "SH-HL",
      "countryCode": "GB",
      "latitude": "-15.96501040",
      "longitude": "-5.70892410"
   },
   {
      "name": "Sheffield",
      "isoCode": "SHF",
      "countryCode": "GB",
      "latitude": "36.09507430",
      "longitude": "-80.27884660"
   },
   {
      "name": "St Helens",
      "isoCode": "SHN",
      "countryCode": "GB",
      "latitude": "45.85896100",
      "longitude": "-122.82123560"
   },
   {
      "name": "Shropshire",
      "isoCode": "SHR",
      "countryCode": "GB",
      "latitude": "52.70636570",
      "longitude": "-2.74178490"
   },
   {
      "name": "Stockport",
      "isoCode": "SKP",
      "countryCode": "GB",
      "latitude": "53.41063160",
      "longitude": "-2.15753320"
   },
   {
      "name": "Salford",
      "isoCode": "SLF",
      "countryCode": "GB",
      "latitude": "53.48752350",
      "longitude": "-2.29012640"
   },
   {
      "name": "Slough",
      "isoCode": "SLG",
      "countryCode": "GB",
      "latitude": "51.51053840",
      "longitude": "-0.59504060"
   },
   {
      "name": "South Lanarkshire",
      "isoCode": "SLK",
      "countryCode": "GB",
      "latitude": "55.67359090",
      "longitude": "-3.78196610"
   },
   {
      "name": "City of Sunderland",
      "isoCode": "SND",
      "countryCode": "GB",
      "latitude": "54.88614890",
      "longitude": "-1.47857970"
   },
   {
      "name": "Solihull",
      "isoCode": "SOL",
      "countryCode": "GB",
      "latitude": "52.41181100",
      "longitude": "-1.77761000"
   },
   {
      "name": "Somerset",
      "isoCode": "SOM",
      "countryCode": "GB",
      "latitude": "51.10509700",
      "longitude": "-2.92623070"
   },
   {
      "name": "Southend-on-Sea",
      "isoCode": "SOS",
      "countryCode": "GB",
      "latitude": "51.54592690",
      "longitude": "0.70771230"
   },
   {
      "name": "Surrey",
      "isoCode": "SRY",
      "countryCode": "GB",
      "latitude": "51.31475930",
      "longitude": "-0.55995010"
   },
   {
      "name": "Strabane District Council",
      "isoCode": "STB",
      "countryCode": "GB",
      "latitude": "54.82738650",
      "longitude": "-7.46331030"
   },
   {
      "name": "City of Stoke-on-Trent",
      "isoCode": "STE",
      "countryCode": "GB",
      "latitude": "53.00266800",
      "longitude": "-2.17940400"
   },
   {
      "name": "Stirling",
      "isoCode": "STG",
      "countryCode": "GB",
      "latitude": "56.11652270",
      "longitude": "-3.93690290"
   },
   {
      "name": "City of Southampton",
      "isoCode": "STH",
      "countryCode": "GB",
      "latitude": "50.90970040",
      "longitude": "-1.40435090"
   },
   {
      "name": "London Borough of Sutton",
      "isoCode": "STN",
      "countryCode": "GB",
      "latitude": "51.35737620",
      "longitude": "-0.17527960"
   },
   {
      "name": "Staffordshire",
      "isoCode": "STS",
      "countryCode": "GB",
      "latitude": "52.87927450",
      "longitude": "-2.05718680"
   },
   {
      "name": "Stockton-on-Tees",
      "isoCode": "STT",
      "countryCode": "GB",
      "latitude": "54.57045510",
      "longitude": "-1.32898210"
   },
   {
      "name": "South Tyneside",
      "isoCode": "STY",
      "countryCode": "GB",
      "latitude": "54.96366930",
      "longitude": "-1.44186340"
   },
   {
      "name": "City and County of Swansea",
      "isoCode": "SWA",
      "countryCode": "GB",
      "latitude": "51.62144000",
      "longitude": "-3.94364600"
   },
   {
      "name": "Swindon",
      "isoCode": "SWD",
      "countryCode": "GB",
      "latitude": "51.55577390",
      "longitude": "-1.77971760"
   },
   {
      "name": "London Borough of Southwark",
      "isoCode": "SWK",
      "countryCode": "GB",
      "latitude": "51.48805720",
      "longitude": "-0.07628380"
   },
   {
      "name": "Tameside",
      "isoCode": "TAM",
      "countryCode": "GB",
      "latitude": "53.48058280",
      "longitude": "-2.08098910"
   },
   {
      "name": "Telford and Wrekin",
      "isoCode": "TFW",
      "countryCode": "GB",
      "latitude": "52.74099160",
      "longitude": "-2.48685860"
   },
   {
      "name": "Thurrock",
      "isoCode": "THR",
      "countryCode": "GB",
      "latitude": "51.49345570",
      "longitude": "0.35291970"
   },
   {
      "name": "Torbay",
      "isoCode": "TOB",
      "countryCode": "GB",
      "latitude": "50.43923290",
      "longitude": "-3.53698990"
   },
   {
      "name": "Torfaen",
      "isoCode": "TOF",
      "countryCode": "GB",
      "latitude": "51.70022530",
      "longitude": "-3.04460150"
   },
   {
      "name": "Trafford",
      "isoCode": "TRF",
      "countryCode": "GB",
      "latitude": "40.38562460",
      "longitude": "-79.75893470"
   },
   {
      "name": "London Borough of Tower Hamlets",
      "isoCode": "TWH",
      "countryCode": "GB",
      "latitude": "51.52026070",
      "longitude": "-0.02933960"
   },
   {
      "name": "United Kingdom",
      "isoCode": "UKM",
      "countryCode": "GB",
      "latitude": "55.37805100",
      "longitude": "-3.43597300"
   },
   {
      "name": "Vale of Glamorgan",
      "isoCode": "VGL",
      "countryCode": "GB",
      "latitude": "51.40959580",
      "longitude": "-3.48481670"
   },
   {
      "name": "Warwickshire",
      "isoCode": "WAR",
      "countryCode": "GB",
      "latitude": "52.26713530",
      "longitude": "-1.46752160"
   },
   {
      "name": "West Berkshire",
      "isoCode": "WBK",
      "countryCode": "GB",
      "latitude": "51.43082550",
      "longitude": "-1.14449270"
   },
   {
      "name": "West Dunbartonshire",
      "isoCode": "WDU",
      "countryCode": "GB",
      "latitude": "55.94509250",
      "longitude": "-4.56462590"
   },
   {
      "name": "London Borough of Waltham Forest",
      "isoCode": "WFT",
      "countryCode": "GB",
      "latitude": "51.58863830",
      "longitude": "-0.01176250"
   },
   {
      "name": "Metropolitan Borough of Wigan",
      "isoCode": "WGN",
      "countryCode": "GB",
      "latitude": "53.51348120",
      "longitude": "-2.61069990"
   },
   {
      "name": "Wiltshire",
      "isoCode": "WIL",
      "countryCode": "GB",
      "latitude": "51.34919960",
      "longitude": "-1.99271050"
   },
   {
      "name": "Wakefield",
      "isoCode": "WKF",
      "countryCode": "GB",
      "latitude": "42.50393950",
      "longitude": "-71.07233910"
   },
   {
      "name": "Walsall",
      "isoCode": "WLL",
      "countryCode": "GB",
      "latitude": "52.58621400",
      "longitude": "-1.98291900"
   },
   {
      "name": "West Lothian",
      "isoCode": "WLN",
      "countryCode": "GB",
      "latitude": "55.90701980",
      "longitude": "-3.55171670"
   },
   {
      "name": "Wales",
      "isoCode": "WLS",
      "countryCode": "GB",
      "latitude": "52.13066070",
      "longitude": "-3.78371170"
   },
   {
      "name": "City of Wolverhampton",
      "isoCode": "WLV",
      "countryCode": "GB",
      "latitude": "52.58891200",
      "longitude": "-2.15646300"
   },
   {
      "name": "London Borough of Wandsworth",
      "isoCode": "WND",
      "countryCode": "GB",
      "latitude": "51.45682740",
      "longitude": "-0.18966380"
   },
   {
      "name": "Windsor and Maidenhead",
      "isoCode": "WNM",
      "countryCode": "GB",
      "latitude": "51.47997120",
      "longitude": "-0.62425650"
   },
   {
      "name": "Wokingham",
      "isoCode": "WOK",
      "countryCode": "GB",
      "latitude": "51.41045700",
      "longitude": "-0.83386100"
   },
   {
      "name": "Worcestershire",
      "isoCode": "WOR",
      "countryCode": "GB",
      "latitude": "52.25452250",
      "longitude": "-2.26683820"
   },
   {
      "name": "Wirral",
      "isoCode": "WRL",
      "countryCode": "GB",
      "latitude": "53.37271810",
      "longitude": "-3.07375400"
   },
   {
      "name": "Warrington",
      "isoCode": "WRT",
      "countryCode": "GB",
      "latitude": "40.24927410",
      "longitude": "-75.13406040"
   },
   {
      "name": "Wrexham County Borough",
      "isoCode": "WRX",
      "countryCode": "GB",
      "latitude": "53.03013780",
      "longitude": "-3.02614870"
   },
   {
      "name": "City of Westminster",
      "isoCode": "WSM",
      "countryCode": "GB",
      "latitude": "39.57659770",
      "longitude": "-76.99721260"
   },
   {
      "name": "West Sussex",
      "isoCode": "WSX",
      "countryCode": "GB",
      "latitude": "50.92801430",
      "longitude": "-0.46170750"
   },
   {
      "name": "City of York",
      "isoCode": "YOR",
      "countryCode": "GB",
      "latitude": "53.95996510",
      "longitude": "-1.08729790"
   },
   {
      "name": "Shetland Islands",
      "isoCode": "ZET",
      "countryCode": "GB",
      "latitude": "60.52965070",
      "longitude": "-1.26594090"
   },
   {
      "name": "Baranya County",
      "isoCode": "BA",
      "countryCode": "HU",
      "latitude": "46.04845850",
      "longitude": "18.27191730"
   },
   {
      "name": "Békéscsaba",
      "isoCode": "BC",
      "countryCode": "HU",
      "latitude": "46.67359390",
      "longitude": "21.08773090"
   },
   {
      "name": "Békés County",
      "isoCode": "BE",
      "countryCode": "HU",
      "latitude": "46.67048990",
      "longitude": "21.04349960"
   },
   {
      "name": "Bács-Kiskun County",
      "isoCode": "BK",
      "countryCode": "HU",
      "latitude": "46.56614370",
      "longitude": "19.42724640"
   },
   {
      "name": "Budapest",
      "isoCode": "BU",
      "countryCode": "HU",
      "latitude": "47.49791200",
      "longitude": "19.04023500"
   },
   {
      "name": "Borsod-Abaúj-Zemplén County",
      "isoCode": "BZ",
      "countryCode": "HU",
      "latitude": "48.29394010",
      "longitude": "20.69341120"
   },
   {
      "name": "Csongrád County",
      "isoCode": "CS",
      "countryCode": "HU",
      "latitude": "46.41670500",
      "longitude": "20.25661610"
   },
   {
      "name": "Debrecen",
      "isoCode": "DE",
      "countryCode": "HU",
      "latitude": "47.53160490",
      "longitude": "21.62731240"
   },
   {
      "name": "Dunaújváros",
      "isoCode": "DU",
      "countryCode": "HU",
      "latitude": "46.96190590",
      "longitude": "18.93552270"
   },
   {
      "name": "Eger",
      "isoCode": "EG",
      "countryCode": "HU",
      "latitude": "47.90253480",
      "longitude": "20.37722840"
   },
   {
      "name": "Érd",
      "isoCode": "ER",
      "countryCode": "HU",
      "latitude": "47.39197180",
      "longitude": "18.90454400"
   },
   {
      "name": "Fejér County",
      "isoCode": "FE",
      "countryCode": "HU",
      "latitude": "47.12179320",
      "longitude": "18.52948150"
   },
   {
      "name": "Győr-Moson-Sopron County",
      "isoCode": "GS",
      "countryCode": "HU",
      "latitude": "47.65092850",
      "longitude": "17.25058830"
   },
   {
      "name": "Győr",
      "isoCode": "GY",
      "countryCode": "HU",
      "latitude": "47.68745690",
      "longitude": "17.65039740"
   },
   {
      "name": "Hajdú-Bihar County",
      "isoCode": "HB",
      "countryCode": "HU",
      "latitude": "47.46883550",
      "longitude": "21.54532270"
   },
   {
      "name": "Heves County",
      "isoCode": "HE",
      "countryCode": "HU",
      "latitude": "47.80576170",
      "longitude": "20.20385590"
   },
   {
      "name": "Hódmezővásárhely",
      "isoCode": "HV",
      "countryCode": "HU",
      "latitude": "46.41812620",
      "longitude": "20.33003150"
   },
   {
      "name": "Jász-Nagykun-Szolnok County",
      "isoCode": "JN",
      "countryCode": "HU",
      "latitude": "47.25555790",
      "longitude": "20.52324560"
   },
   {
      "name": "Kecskemét",
      "isoCode": "KM",
      "countryCode": "HU",
      "latitude": "46.89637110",
      "longitude": "19.68968610"
   },
   {
      "name": "Kaposvár",
      "isoCode": "KV",
      "countryCode": "HU",
      "latitude": "46.35936060",
      "longitude": "17.79676390"
   },
   {
      "name": "Miskolc",
      "isoCode": "MI",
      "countryCode": "HU",
      "latitude": "48.10347750",
      "longitude": "20.77843840"
   },
   {
      "name": "Nagykanizsa",
      "isoCode": "NK",
      "countryCode": "HU",
      "latitude": "46.45902180",
      "longitude": "16.98967960"
   },
   {
      "name": "Nógrád County",
      "isoCode": "NO",
      "countryCode": "HU",
      "latitude": "47.90410310",
      "longitude": "19.04985040"
   },
   {
      "name": "Nyíregyháza",
      "isoCode": "NY",
      "countryCode": "HU",
      "latitude": "47.94953240",
      "longitude": "21.72440530"
   },
   {
      "name": "Pest County",
      "isoCode": "PE",
      "countryCode": "HU",
      "latitude": "47.44800010",
      "longitude": "19.46181280"
   },
   {
      "name": "Pécs",
      "isoCode": "PS",
      "countryCode": "HU",
      "latitude": "46.07273450",
      "longitude": "18.23226600"
   },
   {
      "name": "Szeged",
      "isoCode": "SD",
      "countryCode": "HU",
      "latitude": "46.25301020",
      "longitude": "20.14142530"
   },
   {
      "name": "Székesfehérvár",
      "isoCode": "SF",
      "countryCode": "HU",
      "latitude": "47.18602620",
      "longitude": "18.42213580"
   },
   {
      "name": "Szombathely",
      "isoCode": "SH",
      "countryCode": "HU",
      "latitude": "47.23068510",
      "longitude": "16.62184410"
   },
   {
      "name": "Szolnok",
      "isoCode": "SK",
      "countryCode": "HU",
      "latitude": "47.16213550",
      "longitude": "20.18247120"
   },
   {
      "name": "Sopron",
      "isoCode": "SN",
      "countryCode": "HU",
      "latitude": "47.68166190",
      "longitude": "16.58447950"
   },
   {
      "name": "Somogy County",
      "isoCode": "SO",
      "countryCode": "HU",
      "latitude": "46.55485900",
      "longitude": "17.58667320"
   },
   {
      "name": "Szekszárd",
      "isoCode": "SS",
      "countryCode": "HU",
      "latitude": "46.34743260",
      "longitude": "18.70622930"
   },
   {
      "name": "Salgótarján",
      "isoCode": "ST",
      "countryCode": "HU",
      "latitude": "48.09352370",
      "longitude": "19.79998130"
   },
   {
      "name": "Szabolcs-Szatmár-Bereg County",
      "isoCode": "SZ",
      "countryCode": "HU",
      "latitude": "48.03949540",
      "longitude": "22.00333000"
   },
   {
      "name": "Tatabánya",
      "isoCode": "TB",
      "countryCode": "HU",
      "latitude": "47.56924600",
      "longitude": "18.40481800"
   },
   {
      "name": "Tolna County",
      "isoCode": "TO",
      "countryCode": "HU",
      "latitude": "46.47627540",
      "longitude": "18.55706270"
   },
   {
      "name": "Vas County",
      "isoCode": "VA",
      "countryCode": "HU",
      "latitude": "47.09291110",
      "longitude": "16.68121830"
   },
   {
      "name": "Veszprém County",
      "isoCode": "VE",
      "countryCode": "HU",
      "latitude": "47.09309740",
      "longitude": "17.91007630"
   },
   {
      "name": "Veszprém",
      "isoCode": "VM",
      "countryCode": "HU",
      "latitude": "47.10280870",
      "longitude": "17.90930190"
   },
   {
      "name": "Zala County",
      "isoCode": "ZA",
      "countryCode": "HU",
      "latitude": "46.73844040",
      "longitude": "16.91522520"
   },
   {
      "name": "Zalaegerszeg",
      "isoCode": "ZE",
      "countryCode": "HU",
      "latitude": "46.84169360",
      "longitude": "16.84163220"
   },
   {
      "name": "Connacht",
      "isoCode": "C",
      "countryCode": "IE",
      "latitude": "53.83762430",
      "longitude": "-8.95844810"
   },
   {
      "name": "Clare",
      "isoCode": "CE",
      "countryCode": "IE",
      "latitude": "43.04664000",
      "longitude": "-87.89958100"
   },
   {
      "name": "Cavan",
      "isoCode": "CN",
      "countryCode": "IE",
      "latitude": "53.97654240",
      "longitude": "-7.29966230"
   },
   {
      "name": "Cork",
      "isoCode": "CO",
      "countryCode": "IE",
      "latitude": "51.89851430",
      "longitude": "-8.47560350"
   },
   {
      "name": "Carlow",
      "isoCode": "CW",
      "countryCode": "IE",
      "latitude": "52.72322170",
      "longitude": "-6.81082950"
   },
   {
      "name": "Dublin",
      "isoCode": "D",
      "countryCode": "IE",
      "latitude": "53.34980530",
      "longitude": "-6.26030970"
   },
   {
      "name": "Donegal",
      "isoCode": "DL",
      "countryCode": "IE",
      "latitude": "54.65489930",
      "longitude": "-8.10409670"
   },
   {
      "name": "Galway",
      "isoCode": "G",
      "countryCode": "IE",
      "latitude": "53.35645090",
      "longitude": "-8.85341130"
   },
   {
      "name": "Kildare",
      "isoCode": "KE",
      "countryCode": "IE",
      "latitude": "53.21204340",
      "longitude": "-6.81947080"
   },
   {
      "name": "Kilkenny",
      "isoCode": "KK",
      "countryCode": "IE",
      "latitude": "52.57769570",
      "longitude": "-7.21800200"
   },
   {
      "name": "Kerry",
      "isoCode": "KY",
      "countryCode": "IE",
      "latitude": "52.15446070",
      "longitude": "-9.56686330"
   },
   {
      "name": "Leinster",
      "isoCode": "L",
      "countryCode": "IE",
      "latitude": "53.32715380",
      "longitude": "-7.51408410"
   },
   {
      "name": "Longford",
      "isoCode": "LD",
      "countryCode": "IE",
      "latitude": "53.72749820",
      "longitude": "-7.79315270"
   },
   {
      "name": "Louth",
      "isoCode": "LH",
      "countryCode": "IE",
      "latitude": "53.92523240",
      "longitude": "-6.48894230"
   },
   {
      "name": "Limerick",
      "isoCode": "LK",
      "countryCode": "IE",
      "latitude": "52.50905170",
      "longitude": "-8.74749550"
   },
   {
      "name": "Laois",
      "isoCode": "LS",
      "countryCode": "IE",
      "latitude": "52.99429500",
      "longitude": "-7.33230070"
   },
   {
      "name": "Munster",
      "isoCode": "M",
      "countryCode": "IE",
      "latitude": "51.94711970",
      "longitude": "7.58453200"
   },
   {
      "name": "Meath",
      "isoCode": "MH",
      "countryCode": "IE",
      "latitude": "53.60554800",
      "longitude": "-6.65641690"
   },
   {
      "name": "Monaghan",
      "isoCode": "MN",
      "countryCode": "IE",
      "latitude": "54.24920460",
      "longitude": "-6.96831320"
   },
   {
      "name": "Mayo",
      "isoCode": "MO",
      "countryCode": "IE",
      "latitude": "54.01526040",
      "longitude": "-9.42893690"
   },
   {
      "name": "Offaly",
      "isoCode": "OY",
      "countryCode": "IE",
      "latitude": "53.23568710",
      "longitude": "-7.71222290"
   },
   {
      "name": "Roscommon",
      "isoCode": "RN",
      "countryCode": "IE",
      "latitude": "53.75926040",
      "longitude": "-8.26816210"
   },
   {
      "name": "Sligo",
      "isoCode": "SO",
      "countryCode": "IE",
      "latitude": "54.15532770",
      "longitude": "-8.60645320"
   },
   {
      "name": "Tipperary",
      "isoCode": "TA",
      "countryCode": "IE",
      "latitude": "52.47378940",
      "longitude": "-8.16185140"
   },
   {
      "name": "Ulster",
      "isoCode": "U",
      "countryCode": "IE",
      "latitude": "54.76165550",
      "longitude": "-6.96122730"
   },
   {
      "name": "Waterford",
      "isoCode": "WD",
      "countryCode": "IE",
      "latitude": "52.19435490",
      "longitude": "-7.62275120"
   },
   {
      "name": "Westmeath",
      "isoCode": "WH",
      "countryCode": "IE",
      "latitude": "53.53453080",
      "longitude": "-7.46532170"
   },
   {
      "name": "Wicklow",
      "isoCode": "WW",
      "countryCode": "IE",
      "latitude": "52.98623130",
      "longitude": "-6.36725430"
   },
   {
      "name": "Wexford",
      "isoCode": "WX",
      "countryCode": "IE",
      "latitude": "52.47936030",
      "longitude": "-6.58399130"
   },
   {
      "name": "Andaman and Nicobar Islands",
      "isoCode": "AN",
      "countryCode": "IN",
      "latitude": "11.74008670",
      "longitude": "92.65864010"
   },
   {
      "name": "Andhra Pradesh",
      "isoCode": "AP",
      "countryCode": "IN",
      "latitude": "15.91289980",
      "longitude": "79.73998750"
   },
   {
      "name": "Arunachal Pradesh",
      "isoCode": "AR",
      "countryCode": "IN",
      "latitude": "28.21799940",
      "longitude": "94.72775280"
   },
   {
      "name": "Assam",
      "isoCode": "AS",
      "countryCode": "IN",
      "latitude": "26.20060430",
      "longitude": "92.93757390"
   },
   {
      "name": "Bihar",
      "isoCode": "BR",
      "countryCode": "IN",
      "latitude": "25.09607420",
      "longitude": "85.31311940"
   },
   {
      "name": "Chandigarh",
      "isoCode": "CH",
      "countryCode": "IN",
      "latitude": "30.73331480",
      "longitude": "76.77941790"
   },
   {
      "name": "Chhattisgarh",
      "isoCode": "CT",
      "countryCode": "IN",
      "latitude": "21.27865670",
      "longitude": "81.86614420"
   },
   {
      "name": "Dadra and Nagar Haveli and Daman and Diu",
      "isoCode": "DH",
      "countryCode": "IN",
      "latitude": "20.39737360",
      "longitude": "72.83279910"
   },
   {
      "name": "Delhi",
      "isoCode": "DL",
      "countryCode": "IN",
      "latitude": "28.70405920",
      "longitude": "77.10249020"
   },
   {
      "name": "Goa",
      "isoCode": "GA",
      "countryCode": "IN",
      "latitude": "15.29932650",
      "longitude": "74.12399600"
   },
   {
      "name": "Gujarat",
      "isoCode": "GJ",
      "countryCode": "IN",
      "latitude": "22.25865200",
      "longitude": "71.19238050"
   },
   {
      "name": "Himachal Pradesh",
      "isoCode": "HP",
      "countryCode": "IN",
      "latitude": "31.10482940",
      "longitude": "77.17339010"
   },
   {
      "name": "Haryana",
      "isoCode": "HR",
      "countryCode": "IN",
      "latitude": "29.05877570",
      "longitude": "76.08560100"
   },
   {
      "name": "Jharkhand",
      "isoCode": "JH",
      "countryCode": "IN",
      "latitude": "23.61018080",
      "longitude": "85.27993540"
   },
   {
      "name": "Jammu and Kashmir",
      "isoCode": "JK",
      "countryCode": "IN",
      "latitude": "33.27783900",
      "longitude": "75.34121790"
   },
   {
      "name": "Karnataka",
      "isoCode": "KA",
      "countryCode": "IN",
      "latitude": "15.31727750",
      "longitude": "75.71388840"
   },
   {
      "name": "Kerala",
      "isoCode": "KL",
      "countryCode": "IN",
      "latitude": "10.85051590",
      "longitude": "76.27108330"
   },
   {
      "name": "Ladakh",
      "isoCode": "LA",
      "countryCode": "IN",
      "latitude": "34.22684750",
      "longitude": "77.56194190"
   },
   {
      "name": "Lakshadweep",
      "isoCode": "LD",
      "countryCode": "IN",
      "latitude": "10.32802650",
      "longitude": "72.78463360"
   },
   {
      "name": "Maharashtra",
      "isoCode": "MH",
      "countryCode": "IN",
      "latitude": "19.75147980",
      "longitude": "75.71388840"
   },
   {
      "name": "Meghalaya",
      "isoCode": "ML",
      "countryCode": "IN",
      "latitude": "25.46703080",
      "longitude": "91.36621600"
   },
   {
      "name": "Manipur",
      "isoCode": "MN",
      "countryCode": "IN",
      "latitude": "24.66371730",
      "longitude": "93.90626880"
   },
   {
      "name": "Madhya Pradesh",
      "isoCode": "MP",
      "countryCode": "IN",
      "latitude": "22.97342290",
      "longitude": "78.65689420"
   },
   {
      "name": "Mizoram",
      "isoCode": "MZ",
      "countryCode": "IN",
      "latitude": "23.16454300",
      "longitude": "92.93757390"
   },
   {
      "name": "Nagaland",
      "isoCode": "NL",
      "countryCode": "IN",
      "latitude": "26.15843540",
      "longitude": "94.56244260"
   },
   {
      "name": "Odisha",
      "isoCode": "OR",
      "countryCode": "IN",
      "latitude": "20.95166580",
      "longitude": "85.09852360"
   },
   {
      "name": "Punjab",
      "isoCode": "PB",
      "countryCode": "IN",
      "latitude": "31.14713050",
      "longitude": "75.34121790"
   },
   {
      "name": "Puducherry",
      "isoCode": "PY",
      "countryCode": "IN",
      "latitude": "11.94159150",
      "longitude": "79.80831330"
   },
   {
      "name": "Rajasthan",
      "isoCode": "RJ",
      "countryCode": "IN",
      "latitude": "27.02380360",
      "longitude": "74.21793260"
   },
   {
      "name": "Sikkim",
      "isoCode": "SK",
      "countryCode": "IN",
      "latitude": "27.53297180",
      "longitude": "88.51221780"
   },
   {
      "name": "Telangana",
      "isoCode": "TG",
      "countryCode": "IN",
      "latitude": "18.11243720",
      "longitude": "79.01929970"
   },
   {
      "name": "Tamil Nadu",
      "isoCode": "TN",
      "countryCode": "IN",
      "latitude": "11.12712250",
      "longitude": "78.65689420"
   },
   {
      "name": "Tripura",
      "isoCode": "TR",
      "countryCode": "IN",
      "latitude": "23.94084820",
      "longitude": "91.98815270"
   },
   {
      "name": "Uttar Pradesh",
      "isoCode": "UP",
      "countryCode": "IN",
      "latitude": "26.84670880",
      "longitude": "80.94615920"
   },
   {
      "name": "Uttarakhand",
      "isoCode": "UT",
      "countryCode": "IN",
      "latitude": "30.06675300",
      "longitude": "79.01929970"
   },
   {
      "name": "West Bengal",
      "isoCode": "WB",
      "countryCode": "IN",
      "latitude": "22.98675690",
      "longitude": "87.85497550"
   },
   {
      "name": "Piedmont",
      "isoCode": "21",
      "countryCode": "IT",
      "latitude": "45.05223660",
      "longitude": "7.51538850"
   },
   {
      "name": "Aosta Valley",
      "isoCode": "23",
      "countryCode": "IT",
      "latitude": "45.73888780",
      "longitude": "7.42618660"
   },
   {
      "name": "Lombardy",
      "isoCode": "25",
      "countryCode": "IT",
      "latitude": "45.47906710",
      "longitude": "9.84524330"
   },
   {
      "name": "Trentino-South Tyrol",
      "isoCode": "32",
      "countryCode": "IT",
      "latitude": "46.43366620",
      "longitude": "11.16932960"
   },
   {
      "name": "Veneto",
      "isoCode": "34",
      "countryCode": "IT",
      "latitude": "45.44146620",
      "longitude": "12.31525950"
   },
   {
      "name": "Friuli–Venezia Giulia",
      "isoCode": "36",
      "countryCode": "IT",
      "latitude": "46.22591770",
      "longitude": "13.10336460"
   },
   {
      "name": "Liguria",
      "isoCode": "42",
      "countryCode": "IT",
      "latitude": "44.31679170",
      "longitude": "8.39649380"
   },
   {
      "name": "Emilia-Romagna",
      "isoCode": "45",
      "countryCode": "IT",
      "latitude": "44.59676070",
      "longitude": "11.21863960"
   },
   {
      "name": "Tuscany",
      "isoCode": "52",
      "countryCode": "IT",
      "latitude": "43.77105130",
      "longitude": "11.24862080"
   },
   {
      "name": "Umbria",
      "isoCode": "55",
      "countryCode": "IT",
      "latitude": "42.93800400",
      "longitude": "12.62162110"
   },
   {
      "name": "Marche",
      "isoCode": "57",
      "countryCode": "IT",
      "latitude": "30.55670700",
      "longitude": "-81.44930300"
   },
   {
      "name": "Lazio",
      "isoCode": "62",
      "countryCode": "IT",
      "latitude": "45.69916670",
      "longitude": "-73.65583330"
   },
   {
      "name": "Abruzzo",
      "isoCode": "65",
      "countryCode": "IT",
      "latitude": "42.19201190",
      "longitude": "13.72891670"
   },
   {
      "name": "Molise",
      "isoCode": "67",
      "countryCode": "IT",
      "latitude": "41.67388650",
      "longitude": "14.75209390"
   },
   {
      "name": "Campania",
      "isoCode": "72",
      "countryCode": "IT",
      "latitude": "40.66708870",
      "longitude": "15.10681130"
   },
   {
      "name": "Apulia",
      "isoCode": "75",
      "countryCode": "IT",
      "latitude": "40.79283930",
      "longitude": "17.10119310"
   },
   {
      "name": "Basilicata",
      "isoCode": "77",
      "countryCode": "IT",
      "latitude": "40.64307660",
      "longitude": "15.96998780"
   },
   {
      "name": "Calabria",
      "isoCode": "78",
      "countryCode": "IT",
      "latitude": "39.30877140",
      "longitude": "16.34637910"
   },
   {
      "name": "Sicily",
      "isoCode": "82",
      "countryCode": "IT",
      "latitude": "37.59999380",
      "longitude": "14.01535570"
   },
   {
      "name": "Sardinia",
      "isoCode": "88",
      "countryCode": "IT",
      "latitude": "40.12087520",
      "longitude": "9.01289260"
   },
   {
      "name": "Libero consorzio comunale di Agrigento",
      "isoCode": "AG",
      "countryCode": "IT",
      "latitude": "37.31052020",
      "longitude": "13.58579780"
   },
   {
      "name": "Province of Alessandria",
      "isoCode": "AL",
      "countryCode": "IT",
      "latitude": "44.81755870",
      "longitude": "8.70466270"
   },
   {
      "name": "Province of Ancona",
      "isoCode": "AN",
      "countryCode": "IT",
      "latitude": "43.54932450",
      "longitude": "13.26634790"
   },
   {
      "name": "Province of Ascoli Piceno",
      "isoCode": "AP",
      "countryCode": "IT",
      "latitude": "42.86389330",
      "longitude": "13.58997330"
   },
   {
      "name": "Province of L'Aquila",
      "isoCode": "AQ",
      "countryCode": "IT",
      "latitude": "42.12563170",
      "longitude": "13.63627150"
   },
   {
      "name": "Province of Asti",
      "isoCode": "AT",
      "countryCode": "IT",
      "latitude": "44.90076520",
      "longitude": "8.20643150"
   },
   {
      "name": "Province of Avellino",
      "isoCode": "AV",
      "countryCode": "IT",
      "latitude": "40.99645100",
      "longitude": "15.12589550"
   },
   {
      "name": "Metropolitan City of Bari",
      "isoCode": "BA",
      "countryCode": "IT",
      "latitude": "41.11714320",
      "longitude": "16.87187150"
   },
   {
      "name": "Province of Bergamo",
      "isoCode": "BG",
      "countryCode": "IT",
      "latitude": "45.69826420",
      "longitude": "9.67726980"
   },